[{"id":"12-gates-brewing-company-williamsville","name":"12 Gates Brewing Company","brewery_type":"brewpub","street":"80 Earhart Dr Ste 20","address_2":null,"address_3":null,"city":"Williamsville","state":"New York","county_province":null,"postal_code":"14221-7804","country":"United States","longitude":null,"latitude":null,"phone":"7169066600","website_url":"http://www.12gatesbrewing.com","updated_at":"2023-02-21T01:41:59.300Z","created_at":"2023-02-21T01:41:59.300Z"},{"id":"16-stone-brewpub-holland-patent","name":"16 Stone Brewpub","brewery_type":"brewpub","street":"9542 Main St","address_2":null,"address_3":null,"city":"Holland Patent","state":"New York","county_province":null,"postal_code":"13354","country":"United States","longitude":"-75.2565195","latitude":"43.24211175","phone":"3158658500","website_url":"http://www.16stonebrewpub.com","updated_at":"2023-02-21T01:41:59.300Z","created_at":"2023-02-21T01:41:59.300Z"},{"id":"1940s-brewing-company-holbrook","name":"1940's Brewing Company","brewery_type":"micro","street":"1337 Lincoln Ave Unit 1","address_2":null,"address_3":null,"city":"Holbrook","state":"New York","county_province":null,"postal_code":"11741-2275","country":"United States","longitude":null,"latitude":null,"phone":"6315334838","website_url":"http://www.1940sbrewingcompany.com","updated_at":"2023-02-21T01:41:59.300Z","created_at":"2023-02-21T01:41:59.300Z"},{"id":"2-way-brewing-company-beacon","name":"2 Way Brewing Company","brewery_type":"brewpub","street":"18 W Main St","address_2":null,"address_3":null,"city":"Beacon","state":"New York","county_province":null,"postal_code":"12508-2512","country":"United States","longitude":"-73.9809868","latitude":"41.5082102","phone":"8452027334","website_url":"http://www.2waybrewingcompany.com","updated_at":"2023-02-21T01:41:59.300Z","created_at":"2023-02-21T01:41:59.300Z"},{"id":"212-brewing-company-davenport","name":"212 Brewing Company","brewery_type":"contract","street":"21476 Route 23","address_2":null,"address_3":null,"city":"Davenport","state":"New York","county_province":null,"postal_code":"13750","country":"United States","longitude":null,"latitude":null,"phone":"2123779050","website_url":null,"updated_at":"2023-02-21T01:41:59.300Z","created_at":"2023-02-21T01:41:59.300Z"},{"id":"42-north-brewing-company-east-aurora","name":"42 North Brewing Company","brewery_type":"brewpub","street":"25 Pine St","address_2":null,"address_3":null,"city":"East Aurora","state":"New York","county_province":null,"postal_code":"14052-1827","country":"United States","longitude":"-78.607989","latitude":"42.769311","phone":"7168057500","website_url":"http://www.42northbrewing.com","updated_at":"2023-02-21T01:41:59.300Z","created_at":"2023-02-21T01:41:59.300Z"},{"id":"6-degrees-of-separation-ossining","name":"6 Degrees of Separation","brewery_type":"brewpub","street":"35 Main St","address_2":null,"address_3":null,"city":"Ossining","state":"New York","county_province":null,"postal_code":"10562-4662","country":"United States","longitude":"-73.86768188","latitude":"41.15866213","phone":"9144325969","website_url":"http://www.6degreesbp.com","updated_at":"2023-02-21T01:41:59.300Z","created_at":"2023-02-21T01:41:59.300Z"},{"id":"7-sins-brewery-ripley","name":"7 Sins Brewery","brewery_type":"micro","street":"10593 W Main Rd","address_2":null,"address_3":null,"city":"Ripley","state":"New York","county_province":null,"postal_code":"14775-9746","country":"United States","longitude":"-79.7497349","latitude":"42.24869073","phone":"7165812090","website_url":"http://www.7sinsbrewery.com","updated_at":"2023-02-21T01:41:59.300Z","created_at":"2023-02-21T01:41:59.300Z"},{"id":"8th-ward-brewing-company-poughkeepsie","name":"8th Ward Brewing Company","brewery_type":"planning","street":null,"address_2":null,"address_3":null,"city":"Poughkeepsie","state":"New York","county_province":null,"postal_code":"12603-3401","country":"United States","longitude":null,"latitude":null,"phone":null,"website_url":null,"updated_at":"2023-02-21T01:41:59.300Z","created_at":"2023-02-21T01:41:59.300Z"},{"id":"abandon-brewing-penn-yan","name":"Abandon Brewing","brewery_type":"micro","street":"2994 Merritt Hill Rd","address_2":null,"address_3":null,"city":"Penn Yan","state":"New York","county_province":null,"postal_code":"14527-8938","country":"United States","longitude":null,"latitude":null,"phone":"5852093276","website_url":"http://www.abandonbrewing.com","updated_at":"2023-02-21T01:41:59.300Z","created_at":"2023-02-21T01:41:59.300Z"},{"id":"adirondack-pub-and-brewery-lake-george","name":"Adirondack Pub and Brewery","brewery_type":"micro","street":"33 Canada St","address_2":null,"address_3":null,"city":"Lake George","state":"New York","county_province":null,"postal_code":"12845-1603","country":"United States","longitude":"-73.71407763","latitude":"43.41850655","phone":"5186680002","website_url":"http://www.adkpub.com","updated_at":"2023-02-21T01:41:59.300Z","created_at":"2023-02-21T01:41:59.300Z"},{"id":"adirondack-toboggan-company-microbrewery-gouverneur","name":"Adirondack Toboggan Company Microbrewery","brewery_type":"micro","street":"202A W Main St","address_2":null,"address_3":null,"city":"Gouverneur","state":"New York","county_province":null,"postal_code":"13642-1334","country":"United States","longitude":"-75.47489238","latitude":"44.33237311","phone":"3157716313","website_url":"http://www.adktoboggan.net","updated_at":"2023-02-21T01:41:59.300Z","created_at":"2023-02-21T01:41:59.300Z"},{"id":"akwesasne-mohawk-casino-resort-akwesasne","name":"Akwesasne Mohawk Casino Resort","brewery_type":"planning","street":null,"address_2":null,"address_3":null,"city":"Akwesasne","state":"New York","county_province":null,"postal_code":"13655-1800","country":"United States","longitude":null,"latitude":null,"phone":"5183582222","website_url":"http://mohawkcasino.com","updated_at":"2023-02-21T01:41:59.300Z","created_at":"2023-02-21T01:41:59.300Z"},{"id":"alewife-brewing-company-long-island-city","name":"Alewife Brewing Company","brewery_type":"brewpub","street":"514 51st Ave","address_2":null,"address_3":null,"city":"Long Island City","state":"New York","county_province":null,"postal_code":"11101-5879","country":"United States","longitude":"-73.95625257","latitude":"40.74232214","phone":"7189377494","website_url":"http://www.alewife.beer","updated_at":"2023-02-21T01:41:59.300Z","created_at":"2023-02-21T01:41:59.300Z"},{"id":"alphabet-city-brewing-co-new-york","name":"Alphabet City Brewing Co","brewery_type":"contract","street":"96 Avenue C Frnt 4","address_2":null,"address_3":null,"city":"New York","state":"New York","county_province":null,"postal_code":"10009-7055","country":"United States","longitude":null,"latitude":null,"phone":"9143566809","website_url":"http://www.acbnyc.com","updated_at":"2023-02-21T01:41:59.300Z","created_at":"2023-02-21T01:41:59.300Z"},{"id":"amber-lantern-brewing-company-warsaw","name":"Amber Lantern Brewing Company","brewery_type":"brewpub","street":"44 N Main St","address_2":null,"address_3":null,"city":"Warsaw","state":"New York","county_province":null,"postal_code":"14569-1326","country":"United States","longitude":"-78.132363","latitude":"42.7408423","phone":"5857863559","website_url":"http://www.amberlanternbrewingcompany.com","updated_at":"2023-02-21T01:41:59.300Z","created_at":"2023-02-21T01:41:59.300Z"},{"id":"andean-brewing-blauvelt","name":"Andean Brewing","brewery_type":"micro","street":"300 Corporate Dr Ste 2","address_2":null,"address_3":null,"city":"Blauvelt","state":"New York","county_province":null,"postal_code":"10913-1162","country":"United States","longitude":null,"latitude":null,"phone":"6464505852","website_url":null,"updated_at":"2023-02-21T01:41:59.300Z","created_at":"2023-02-21T01:41:59.300Z"},{"id":"anheuser-busch-inc-a-baldwinsville-baldwinsville","name":"Anheuser-Busch Inc â Baldwinsville","brewery_type":"large","street":"2885 Belgium Rd","address_2":null,"address_3":null,"city":"Baldwinsville","state":"New York","county_province":null,"postal_code":"13027-2706","country":"United States","longitude":"-76.31159343","latitude":"43.16510925","phone":"3156354000","website_url":null,"updated_at":"2023-02-21T01:41:59.300Z","created_at":"2023-02-21T01:41:59.300Z"},{"id":"apex-brewery-central-valley","name":"Apex Brewery","brewery_type":"planning","street":null,"address_2":null,"address_3":null,"city":"Central Valley","state":"New York","county_province":null,"postal_code":"10917-3708","country":"United States","longitude":null,"latitude":null,"phone":"8455493006","website_url":"http://www.apexbeer.co","updated_at":"2023-02-21T01:41:59.300Z","created_at":"2023-02-21T01:41:59.300Z"},{"id":"argyle-brewing-company-greenwich","name":"Argyle Brewing Company","brewery_type":"micro","street":"1 Main St","address_2":null,"address_3":null,"city":"Greenwich","state":"New York","county_province":null,"postal_code":"12834-1209","country":"United States","longitude":"-73.496758","latitude":"43.08767125","phone":"5183387405","website_url":"http://www.argylebrewing.com","updated_at":"2023-02-21T01:41:59.300Z","created_at":"2023-02-21T01:41:59.300Z"},{"id":"arrowood-farms-accord","name":"Arrowood Farms","brewery_type":"micro","street":"236 Lower Whitfield Rd","address_2":null,"address_3":null,"city":"Accord","state":"New York","county_province":null,"postal_code":"12404-5809","country":"United States","longitude":"-74.24891742","latitude":"41.80666144","phone":"8452530389","website_url":"http://www.arrowoodfarms.com","updated_at":"2023-02-21T01:41:59.300Z","created_at":"2023-02-21T01:41:59.300Z"},{"id":"artisanal-brew-works-saratoga-springs","name":"Artisanal Brew Works","brewery_type":"micro","street":"41 Geyser Rd","address_2":null,"address_3":null,"city":"Saratoga Springs","state":"New York","county_province":null,"postal_code":"12866-9038","country":"United States","longitude":null,"latitude":null,"phone":"5185942337","website_url":"http://www.artisanalbrewworks.com","updated_at":"2023-02-21T01:41:59.300Z","created_at":"2023-02-21T01:41:59.300Z"},{"id":"aurora-ale-and-lager-king-ferry","name":"Aurora Ale & Lager","brewery_type":"micro","street":"1891 State Route 90 N","address_2":null,"address_3":null,"city":"King Ferry","state":"New York","county_province":null,"postal_code":"13081-9719","country":"United States","longitude":null,"latitude":null,"phone":null,"website_url":"http://www.brewaurora.com","updated_at":"2023-02-21T01:41:59.300Z","created_at":"2023-02-21T01:41:59.300Z"},{"id":"ausable-brewing-co-keeseville","name":"Ausable Brewing Co","brewery_type":"micro","street":"765 Mace Chasm Rd","address_2":null,"address_3":null,"city":"Keeseville","state":"New York","county_province":null,"postal_code":"12944-2425","country":"United States","longitude":null,"latitude":null,"phone":"3152443295","website_url":"http://ausablebrewing.tumblr.com","updated_at":"2023-02-21T01:41:59.300Z","created_at":"2023-02-21T01:41:59.300Z"},{"id":"b9-beverages-inc-new-york","name":"B9 Beverages Inc","brewery_type":"contract","street":"404 5th Ave # 7.055","address_2":null,"address_3":null,"city":"New York","state":"New York","county_province":null,"postal_code":"10018-2797","country":"United States","longitude":null,"latitude":null,"phone":null,"website_url":null,"updated_at":"2023-02-21T01:41:59.300Z","created_at":"2023-02-21T01:41:59.300Z"},{"id":"bacchus-brewing-dryden","name":"Bacchus Brewing","brewery_type":"micro","street":"15 Ellis Dr","address_2":null,"address_3":null,"city":"Dryden","state":"New York","county_province":null,"postal_code":"13053-9630","country":"United States","longitude":"-76.29904171","latitude":"42.49966971","phone":"6078448474","website_url":"http://www.bacchusbrewing.com","updated_at":"2023-02-21T01:41:59.300Z","created_at":"2023-02-21T01:41:59.300Z"},{"id":"bandwagon-brewery-interlaken","name":"Bandwagon Brewery","brewery_type":"micro","street":"3582 West Ave","address_2":null,"address_3":null,"city":"Interlaken","state":"New York","county_province":null,"postal_code":"14847","country":"United States","longitude":"-76.7278241","latitude":"42.61661956","phone":"6072295608","website_url":"http://www.bandwagonbeer.com","updated_at":"2023-02-21T01:41:59.300Z","created_at":"2023-02-21T01:41:59.300Z"},{"id":"barkeater-craft-brewery-lowville","name":"BarkEater Craft Brewery","brewery_type":"proprietor","street":"5411 Shady Ave","address_2":null,"address_3":null,"city":"Lowville","state":"New York","county_province":null,"postal_code":"13367-1601","country":"United States","longitude":"-75.4867252","latitude":"43.7874658","phone":"3157758959","website_url":"http://www.barkeaterbrew.com","updated_at":"2023-02-21T01:41:59.300Z","created_at":"2023-02-21T01:41:59.300Z"},{"id":"barnshed-brewing-hicksville","name":"Barnshed Brewing","brewery_type":"micro","street":"100 Lauman Ln","address_2":null,"address_3":null,"city":"Hicksville","state":"New York","county_province":null,"postal_code":"11801-6574","country":"United States","longitude":"-73.50094256","latitude":"40.74420335","phone":"5163766514","website_url":"http://www.barnshedbrewing.com","updated_at":"2023-02-21T01:41:59.300Z","created_at":"2023-02-21T01:41:59.300Z"},{"id":"barrage-brewing-co-farmingdale","name":"Barrage Brewing Co","brewery_type":"micro","street":"32 Allen Blvd Ste E","address_2":null,"address_3":null,"city":"Farmingdale","state":"New York","county_province":null,"postal_code":"11735-5625","country":"United States","longitude":null,"latitude":null,"phone":"6313357941","website_url":"http://www.barragebrewing.com","updated_at":"2023-02-21T01:41:59.300Z","created_at":"2023-02-21T01:41:59.300Z"},{"id":"barrier-brewing-co-oceanside","name":"Barrier Brewing Co","brewery_type":"micro","street":"3001 New St Ste A2","address_2":null,"address_3":null,"city":"Oceanside","state":"New York","county_province":null,"postal_code":"11572-2747","country":"United States","longitude":null,"latitude":null,"phone":"5165941028","website_url":"http://www.barrierbrewing.com","updated_at":"2023-02-21T01:41:59.300Z","created_at":"2023-02-21T01:41:59.300Z"},{"id":"battle-hill-brewing-company-fort-ann","name":"Battle Hill Brewing Company","brewery_type":"micro","street":"4 Charles Street","address_2":null,"address_3":null,"city":"Fort Ann","state":"New York","county_province":null,"postal_code":"12827","country":"United States","longitude":"-73.48739346","latitude":"43.41676935","phone":"5186391033","website_url":"http://www.battlehillbrewing.com","updated_at":"2023-02-21T01:41:59.300Z","created_at":"2023-02-21T01:41:59.300Z"},{"id":"beer-tree-brew-co-port-crane","name":"Beer Tree Brew Co","brewery_type":"micro","street":"197 Rte 369","address_2":null,"address_3":null,"city":"Port Crane","state":"New York","county_province":null,"postal_code":"13833","country":"United States","longitude":null,"latitude":null,"phone":null,"website_url":"http://www.beertreebrew.com","updated_at":"2023-02-21T01:41:59.300Z","created_at":"2023-02-21T01:41:59.300Z"},{"id":"bellport-brewing-company-rocky-point","name":"Bellport Brewing Company","brewery_type":"proprietor","street":null,"address_2":null,"address_3":null,"city":"Rocky Point","state":"New York","county_province":null,"postal_code":"11778-8986","country":"United States","longitude":null,"latitude":null,"phone":"6319094457","website_url":"http://www.bellportbrewing.com","updated_at":"2023-02-21T01:41:59.300Z","created_at":"2023-02-21T01:41:59.300Z"},{"id":"big-alice-brewing-company-long-island-city","name":"Big Alice Brewing Company","brewery_type":"micro","street":"808 43rd Rd","address_2":null,"address_3":null,"city":"Long Island City","state":"New York","county_province":null,"postal_code":"11101-6820","country":"United States","longitude":null,"latitude":null,"phone":"3476882337","website_url":"http://www.bigalicebrewing.com","updated_at":"2023-02-21T01:41:59.300Z","created_at":"2023-02-21T01:41:59.300Z"},{"id":"big-ditch-brewing-company-buffalo","name":"Big Ditch Brewing Company","brewery_type":"micro","street":"55 E Huron St","address_2":null,"address_3":null,"city":"Buffalo","state":"New York","county_province":null,"postal_code":"14203-1632","country":"United States","longitude":"-78.8709352","latitude":"42.888031","phone":"7168545050","website_url":"http://www.bigditchbrewing.com","updated_at":"2023-02-21T01:41:59.300Z","created_at":"2023-02-21T01:41:59.300Z"},{"id":"big-inlet-brewing-mayville","name":"Big Inlet Brewing","brewery_type":"planning","street":null,"address_2":null,"address_3":null,"city":"Mayville","state":"New York","county_province":null,"postal_code":"14757-9730","country":"United States","longitude":null,"latitude":null,"phone":"7165737564","website_url":"http://www.biginletbrewing.com","updated_at":"2023-02-21T01:41:59.300Z","created_at":"2023-02-21T01:41:59.300Z"},{"id":"big-slide-brewery-lake-placid","name":"Big Slide Brewery","brewery_type":"brewpub","street":"5686 Cascade Road","address_2":null,"address_3":null,"city":"Lake Placid","state":"New York","county_province":null,"postal_code":"12946","country":"United States","longitude":"-73.96977615","latitude":"44.26461237","phone":"5185237844","website_url":"http://www.bigslidebrewery.com","updated_at":"2023-02-21T01:41:59.300Z","created_at":"2023-02-21T01:41:59.300Z"},{"id":"big-tupper-brewing-tupper-lake","name":"Big Tupper Brewing","brewery_type":"brewpub","street":"12 Cliff Ave","address_2":null,"address_3":null,"city":"Tupper Lake","state":"New York","county_province":null,"postal_code":"12986-1719","country":"United States","longitude":"-74.46576367","latitude":"44.223293","phone":"5183596350","website_url":"http://www.bigtupperbrewing.com","updated_at":"2023-02-21T01:41:59.300Z","created_at":"2023-02-21T01:41:59.300Z"},{"id":"binghamton-brewing-co-johnson-city","name":"Binghamton Brewing Co","brewery_type":"micro","street":"15 Avenue B","address_2":null,"address_3":null,"city":"Johnson City","state":"New York","county_province":null,"postal_code":"13790-2234","country":"United States","longitude":"-75.95337584","latitude":"42.11473563","phone":"6072383448","website_url":"http://www.bingbrew.com","updated_at":"2023-02-21T01:41:59.300Z","created_at":"2023-02-21T01:41:59.300Z"},{"id":"birreria-eataly-new-york","name":"Birreria @ Eataly","brewery_type":"brewpub","street":"200 5th Ave Fl 14","address_2":null,"address_3":null,"city":"New York","state":"New York","county_province":null,"postal_code":"10010-3302","country":"United States","longitude":null,"latitude":null,"phone":"2125390204","website_url":"http://www.eatalyny.com","updated_at":"2023-02-21T01:41:59.300Z","created_at":"2023-02-21T01:41:59.300Z"},{"id":"black-forest-brew-haus-farmingdale","name":"Black Forest Brew Haus","brewery_type":"brewpub","street":"2015 New Hwy","address_2":null,"address_3":null,"city":"Farmingdale","state":"New York","county_province":null,"postal_code":"11735-1103","country":"United States","longitude":"-73.41443291","latitude":"40.7550515","phone":"6313919500","website_url":"http://www.blackforestbrewhaus.com","updated_at":"2023-02-21T01:41:59.300Z","created_at":"2023-02-21T01:41:59.300Z"},{"id":"blind-bat-brewery-llc-the-centerport","name":"Blind Bat Brewery LLC, The","brewery_type":"micro","street":"420 Harrison Dr","address_2":null,"address_3":null,"city":"Centerport","state":"New York","county_province":null,"postal_code":"11721-1216","country":"United States","longitude":"-73.38113106","latitude":"40.8959081","phone":"6318917909","website_url":"http://www.BlindBatBrewery.com","updated_at":"2023-02-21T01:41:59.300Z","created_at":"2023-02-21T01:41:59.300Z"},{"id":"blue-collar-brewery-inc-poughkeepsie","name":"Blue Collar Brewery, Inc.","brewery_type":"brewpub","street":"40 Cottage St","address_2":null,"address_3":null,"city":"Poughkeepsie","state":"New York","county_province":null,"postal_code":"12601-2015","country":"United States","longitude":"-73.91831","latitude":"41.707234","phone":"8454542739","website_url":"http://www.thebluecollarbrewery.com","updated_at":"2023-02-21T01:41:59.300Z","created_at":"2023-02-21T01:41:59.300Z"},{"id":"blue-line-brewery-saranac-lake","name":"Blue Line Brewery","brewery_type":"brewpub","street":"555 Lake Flower Ave","address_2":null,"address_3":null,"city":"Saranac Lake","state":"New York","county_province":null,"postal_code":"12983-2465","country":"United States","longitude":"-74.11766659","latitude":"44.31358605","phone":"5183548114","website_url":"http://www.bluelinebrew.com","updated_at":"2023-02-21T01:41:59.300Z","created_at":"2023-02-21T01:41:59.300Z"},{"id":"blue-point-brewing-co-patchogue","name":"Blue Point Brewing Co","brewery_type":"large","street":"161 River Ave","address_2":null,"address_3":null,"city":"Patchogue","state":"New York","county_province":null,"postal_code":"11772-3304","country":"United States","longitude":"-73.0216063","latitude":"40.75913445","phone":"6314756944","website_url":"http://www.bluepointbrewing.com","updated_at":"2023-02-21T01:41:59.300Z","created_at":"2023-02-21T01:41:59.300Z"},{"id":"blue-point-brewing-patchogue","name":"Blue Point Brewing","brewery_type":"large","street":"225 West Main St","address_2":null,"address_3":null,"city":"Patchogue","state":"New York","county_province":null,"postal_code":"11772","country":"United States","longitude":"-73.02103705","latitude":"40.76644215","phone":null,"website_url":null,"updated_at":"2023-02-21T01:41:59.300Z","created_at":"2023-02-21T01:41:59.300Z"},{"id":"bolton-landing-brewing-co-bolton-landing","name":"Bolton Landing Brewing Co.","brewery_type":"micro","street":"4933 Lake Shore Dr","address_2":null,"address_3":null,"city":"Bolton Landing","state":"New York","county_province":null,"postal_code":"12814-7757","country":"United States","longitude":"-73.655636","latitude":"43.555707","phone":"5186442739","website_url":"http://www.boltonlandingbrewing.com","updated_at":"2023-02-21T01:41:59.300Z","created_at":"2023-02-21T01:41:59.300Z"},{"id":"boots-brewing-company-inc-watertown","name":"Boots Brewing Company, Inc.","brewery_type":"micro","street":"89 Public Sq","address_2":null,"address_3":null,"city":"Watertown","state":"New York","county_province":null,"postal_code":"13601-2626","country":"United States","longitude":"-75.90904644","latitude":"43.97475173","phone":"3157670794","website_url":"http://www.bootsbrew.com","updated_at":"2023-02-21T01:41:59.300Z","created_at":"2023-02-21T01:41:59.300Z"},{"id":"bottomless-brewing-llc-geneva","name":"Bottomless Brewing, LLC","brewery_type":"brewpub","street":"3543 E Lake Rd","address_2":null,"address_3":null,"city":"Geneva","state":"New York","county_province":null,"postal_code":"14456-9261","country":"United States","longitude":null,"latitude":null,"phone":"3153254380","website_url":"http://www.bottomlessbrewing.com","updated_at":"2023-02-21T01:41:59.300Z","created_at":"2023-02-21T01:41:59.300Z"},{"id":"bradley-farm-rb-brew-llc-new-paltz","name":"Bradley Farm / RB Brew, LLC","brewery_type":"micro","street":"317 Springtown Rd","address_2":null,"address_3":null,"city":"New Paltz","state":"New York","county_province":null,"postal_code":"12561-3020","country":"United States","longitude":"-74.097562","latitude":"41.760486","phone":"8452558769","website_url":"http://www.raybradleyfarm.com","updated_at":"2023-02-21T01:41:59.300Z","created_at":"2023-02-21T01:41:59.300Z"},{"id":"braven-brewing-company-brooklyn-1","name":"Braven Brewing Company","brewery_type":"planning","street":null,"address_2":null,"address_3":null,"city":"Brooklyn","state":"New York","county_province":null,"postal_code":"11237","country":"United States","longitude":null,"latitude":null,"phone":"9292956673","website_url":null,"updated_at":"2023-02-21T01:41:59.300Z","created_at":"2023-02-21T01:41:59.300Z"},{"id":"braven-brewing-company-brooklyn-2","name":"Braven Brewing Company","brewery_type":"contract","street":"362 Jefferson St # 320","address_2":null,"address_3":null,"city":"Brooklyn","state":"New York","county_province":null,"postal_code":"11237-2312","country":"United States","longitude":"-73.92464725","latitude":"40.70559895","phone":"9292956673","website_url":"http://www.bravenbrewing.com","updated_at":"2023-02-21T01:41:59.300Z","created_at":"2023-02-21T01:41:59.300Z"},{"id":"brewery-at-the-culinary-institute-of-america-hyde-park","name":"Brewery At The Culinary Institute Of America","brewery_type":"brewpub","street":"1946 Campus Dr","address_2":null,"address_3":null,"city":"Hyde Park","state":"New York","county_province":null,"postal_code":"12538","country":"United States","longitude":"-73.9331926","latitude":"41.7459268","phone":null,"website_url":null,"updated_at":"2023-02-21T01:41:59.300Z","created_at":"2023-02-21T01:41:59.300Z"},{"id":"brewery-ommegang-cooperstown","name":"Brewery Ommegang","brewery_type":"regional","street":"656 County Highway 33","address_2":null,"address_3":null,"city":"Cooperstown","state":"New York","county_province":null,"postal_code":"13326-4737","country":"United States","longitude":"-74.855063","latitude":"42.753418","phone":"8005441809","website_url":"http://www.ommegang.com","updated_at":"2023-02-21T01:41:59.300Z","created_at":"2023-02-21T01:41:59.300Z"},{"id":"brewsa-brewing-co-freeport","name":"BrewSA Brewing Co","brewery_type":"micro","street":"180 Woodcleft Ave","address_2":null,"address_3":null,"city":"Freeport","state":"New York","county_province":null,"postal_code":"11520-6336","country":"United States","longitude":"-73.582368","latitude":"40.635176","phone":"5163772751","website_url":"http://www.brewsa.com","updated_at":"2023-02-21T01:41:59.300Z","created_at":"2023-02-21T01:41:59.300Z"},{"id":"brick-house-brewery-and-restaurant-patchogue","name":"Brick House Brewery and Restaurant","brewery_type":"brewpub","street":"67 W Main St","address_2":null,"address_3":null,"city":"Patchogue","state":"New York","county_province":null,"postal_code":"11772-3001","country":"United States","longitude":"-73.01556054","latitude":"40.7657941","phone":"6314472337","website_url":"http://www.brickhousebrewery.com","updated_at":"2023-02-21T01:41:59.300Z","created_at":"2023-02-21T01:41:59.300Z"},{"id":"brickyard-brewing-company-lewiston","name":"Brickyard Brewing Company","brewery_type":"brewpub","street":"436 Center St","address_2":null,"address_3":null,"city":"Lewiston","state":"New York","county_province":null,"postal_code":"14092-1604","country":"United States","longitude":"-79.04306419","latitude":"43.1729222","phone":"7167547227","website_url":"http://www.brickyardbrewingcompany.com","updated_at":"2023-02-21T01:41:59.300Z","created_at":"2023-02-21T01:41:59.300Z"},{"id":"bridge-and-tunnel-brewery-ridgewood","name":"Bridge And Tunnel Brewery","brewery_type":"micro","street":"15-35 Decatur St","address_2":null,"address_3":null,"city":"Ridgewood","state":"New York","county_province":null,"postal_code":"11385-5818","country":"United States","longitude":"-73.9017521","latitude":"40.6943348","phone":"3473928593","website_url":"http://www.bridgeandtunnelbrewery.com","updated_at":"2023-02-21T01:41:59.300Z","created_at":"2023-02-21T01:41:59.300Z"},{"id":"brindle-haus-brewing-company-spencerport","name":"Brindle Haus Brewing Company","brewery_type":"micro","street":"377 S Union St","address_2":null,"address_3":null,"city":"Spencerport","state":"New York","county_province":null,"postal_code":"14559-1970","country":"United States","longitude":"-77.804122","latitude":"43.185296","phone":"5855076665","website_url":"http://www.brindlehausbrewing.com","updated_at":"2023-02-21T01:41:59.300Z","created_at":"2023-02-21T01:41:59.300Z"},{"id":"broken-bow-brewery-tuckahoe","name":"Broken Bow Brewery","brewery_type":"micro","street":"173 Marbledale Rd","address_2":null,"address_3":null,"city":"Tuckahoe","state":"New York","county_province":null,"postal_code":"10707-3117","country":"United States","longitude":"-73.8190325","latitude":"40.9549645","phone":"9142680900","website_url":"http://www.brokenbowbrewery.com","updated_at":"2023-02-21T01:41:59.300Z","created_at":"2023-02-21T01:41:59.300Z"},{"id":"brooklyn-brewery-brooklyn","name":"Brooklyn Brewery","brewery_type":"regional","street":"79 N 11th St #1 Brewers Row","address_2":null,"address_3":null,"city":"Brooklyn","state":"New York","county_province":null,"postal_code":"11249-1913","country":"United States","longitude":null,"latitude":null,"phone":"7184867422","website_url":"http://www.brooklynbrewery.com","updated_at":"2023-02-21T01:41:59.300Z","created_at":"2023-02-21T01:41:59.300Z"},{"id":"browns-brewing-co-north-hoosick","name":"Brown's Brewing Co","brewery_type":"brewpub","street":"50 Factory Hill Rd","address_2":null,"address_3":null,"city":"North Hoosick","state":"New York","county_province":null,"postal_code":"12133","country":"United States","longitude":"-73.34515821","latitude":"42.92661444","phone":"5182732337","website_url":"http://www.brownsbrewing.com","updated_at":"2023-02-21T01:41:59.300Z","created_at":"2023-02-21T01:41:59.300Z"},{"id":"browns-brewing-co-troy","name":"Brown's Brewing Co","brewery_type":"brewpub","street":"417 River St","address_2":null,"address_3":null,"city":"Troy","state":"New York","county_province":null,"postal_code":"12180-2822","country":"United States","longitude":"-73.68755002","latitude":"42.73567746","phone":"5183654846","website_url":"http://www.brownsbrewing.com","updated_at":"2023-02-21T01:41:59.300Z","created_at":"2023-02-21T01:41:59.300Z"},{"id":"buffalo-brewing-company-buffalo","name":"Buffalo Brewing Company","brewery_type":"micro","street":"314 Myrtle Ave","address_2":null,"address_3":null,"city":"Buffalo","state":"New York","county_province":null,"postal_code":"14204-2058","country":"United States","longitude":"-78.85968835","latitude":"42.87851264","phone":"7168682218","website_url":"http://www.buffalo-brewing-company.com","updated_at":"2023-02-21T01:41:59.300Z","created_at":"2023-02-21T01:41:59.300Z"},{"id":"buffalo-brewpub-buffalo","name":"Buffalo Brewpub","brewery_type":"brewpub","street":"6861 Main St","address_2":null,"address_3":null,"city":"Buffalo","state":"New York","county_province":null,"postal_code":"14221-5929","country":"United States","longitude":"-78.831057","latitude":"42.946564","phone":"7166320552","website_url":"http://www.buffalobrewpub.com","updated_at":"2023-02-21T01:41:59.300Z","created_at":"2023-02-21T01:41:59.300Z"},{"id":"buffalo-riverworks-brewery-buffalo","name":"Buffalo RiverWorks Brewery","brewery_type":"brewpub","street":"359 Ganson St","address_2":null,"address_3":null,"city":"Buffalo","state":"New York","county_province":null,"postal_code":"14203-3062","country":"United States","longitude":"-78.87249292","latitude":"42.8696795","phone":"7163422292","website_url":"http://www.buffaloriverworks.com","updated_at":"2023-02-21T01:41:59.300Z","created_at":"2023-02-21T01:41:59.300Z"},{"id":"bull-and-barrel-brew-pub-brewster","name":"Bull and Barrel Brew Pub","brewery_type":"brewpub","street":"988 Route 22","address_2":null,"address_3":null,"city":"Brewster","state":"New York","county_province":null,"postal_code":"10509-1576","country":"United States","longitude":null,"latitude":null,"phone":"8452782855","website_url":"http://www.bullandbarrelbrewpub.com","updated_at":"2023-02-21T01:41:59.300Z","created_at":"2023-02-21T01:41:59.300Z"},{"id":"bullthistle-brewing-co-sherburne","name":"Bullthistle Brewing Co.","brewery_type":"brewpub","street":"45 S Main St","address_2":null,"address_3":null,"city":"Sherburne","state":"New York","county_province":null,"postal_code":"13460-9202","country":"United States","longitude":"-75.49576861","latitude":"42.67156527","phone":"6076742337","website_url":null,"updated_at":"2023-02-21T01:41:59.300Z","created_at":"2023-02-21T01:41:59.300Z"},{"id":"buried-acorn-brewing-company-syracuse","name":"Buried Acorn Brewing Company","brewery_type":"planning","street":null,"address_2":null,"address_3":null,"city":"Syracuse","state":"New York","county_province":null,"postal_code":"13204-1156","country":"United States","longitude":null,"latitude":null,"phone":"3155521499","website_url":"http://www.buriedacorn.com","updated_at":"2023-02-21T01:41:59.300Z","created_at":"2023-02-21T01:41:59.300Z"},{"id":"busters-brew-pub-fort-drum","name":"Buster's Brew Pub","brewery_type":"brewpub","street":"Euphrates River Valley Road Bldg P-4350","address_2":null,"address_3":null,"city":"Fort Drum","state":"New York","county_province":null,"postal_code":"13602","country":"United States","longitude":null,"latitude":null,"phone":"3157721900","website_url":"http://www.drummwr.com","updated_at":"2023-02-21T01:41:59.300Z","created_at":"2023-02-21T01:41:59.300Z"},{"id":"butternuts-beer-garrattsville","name":"Butternuts Beer","brewery_type":"micro","street":"4021 State Highway 51","address_2":null,"address_3":null,"city":"Garrattsville","state":"New York","county_province":null,"postal_code":"13342-1705","country":"United States","longitude":"-75.1914973","latitude":"42.62396243","phone":"6072635070","website_url":"http://www.butternutsbeer.com","updated_at":"2023-02-21T01:41:59.300Z","created_at":"2023-02-21T01:41:59.300Z"},{"id":"cape-vincent-brewing-co-cape-vincent","name":"Cape Vincent Brewing Co","brewery_type":"micro","street":"296 Broadway St","address_2":null,"address_3":null,"city":"Cape Vincent","state":"New York","county_province":null,"postal_code":"13618","country":"United States","longitude":"-76.33484565","latitude":"44.12823687","phone":null,"website_url":"http://www.capevincentbrewing.com","updated_at":"2023-02-21T01:41:59.300Z","created_at":"2023-02-21T01:41:59.300Z"},{"id":"captain-lawrence-brewing-co-elmsford","name":"Captain Lawrence Brewing Co","brewery_type":"regional","street":"444 Saw Mill River Rd Ste 100","address_2":null,"address_3":null,"city":"Elmsford","state":"New York","county_province":null,"postal_code":"10523-1031","country":"United States","longitude":"-73.839113","latitude":"41.03486","phone":"9147412337","website_url":"http://www.captainlawrencebrewing.com","updated_at":"2023-02-21T01:41:59.300Z","created_at":"2023-02-21T01:41:59.300Z"},{"id":"careys-brew-house-corning","name":"Carey's Brew House","brewery_type":"brewpub","street":"58 Bridge St","address_2":null,"address_3":null,"city":"Corning","state":"New York","county_province":null,"postal_code":"14830-2239","country":"United States","longitude":"-77.06089704","latitude":"42.15025771","phone":"6073775651","website_url":"http://www.careysbrewhouse.com","updated_at":"2023-02-21T01:41:59.300Z","created_at":"2023-02-21T01:41:59.300Z"},{"id":"catskill-brewery-livingston-manor","name":"Catskill Brewery","brewery_type":"micro","street":"672 Old Route 17","address_2":null,"address_3":null,"city":"Livingston Manor","state":"New York","county_province":null,"postal_code":"12758-0033","country":"United States","longitude":"-74.827173","latitude":"41.911407","phone":"8454391232","website_url":"http://www.catskillbrewery.com","updated_at":"2023-02-21T01:41:59.300Z","created_at":"2023-02-21T01:41:59.300Z"},{"id":"cave-mountain-brewing-co-windham","name":"Cave Mountain Brewing Co","brewery_type":"brewpub","street":"5359 State Route 23","address_2":null,"address_3":null,"city":"Windham","state":"New York","county_province":null,"postal_code":"12496-5906","country":"United States","longitude":null,"latitude":null,"phone":"5187349222","website_url":"http://www.cavemountainbrewing.com","updated_at":"2023-02-21T01:41:59.300Z","created_at":"2023-02-21T01:41:59.300Z"},{"id":"cb-craft-brewers-honeoye-falls","name":"CB Craft Brewers","brewery_type":"micro","street":"300 Village Square Blvd","address_2":null,"address_3":null,"city":"Honeoye Falls","state":"New York","county_province":null,"postal_code":"14472-1180","country":"United States","longitude":null,"latitude":null,"phone":"5856244386","website_url":"http://www.cbcraftbrewers.com","updated_at":"2023-02-21T01:41:59.300Z","created_at":"2023-02-21T01:41:59.300Z"},{"id":"ch-evans-brewing-coalbany-pump-station-albany","name":"CH Evans Brewing Co/Albany Pump Station","brewery_type":"brewpub","street":"19 Quackenbush Sq","address_2":null,"address_3":null,"city":"Albany","state":"New York","county_province":null,"postal_code":"12207-2311","country":"United States","longitude":null,"latitude":null,"phone":"5184479000","website_url":"http://www.evansale.com","updated_at":"2023-02-21T01:41:59.300Z","created_at":"2023-02-21T01:41:59.300Z"},{"id":"chatham-brewing-llc-chatham","name":"Chatham Brewing LLC","brewery_type":"micro","street":"59 Main St","address_2":null,"address_3":null,"city":"Chatham","state":"New York","county_province":null,"postal_code":"12037-1249","country":"United States","longitude":"-73.59546931","latitude":"42.36315065","phone":"5186970202","website_url":"http://www.chathambrewing.com","updated_at":"2023-02-21T01:41:59.300Z","created_at":"2023-02-21T01:41:59.300Z"},{"id":"chelsea-craft-brewing-co-llc-bronx","name":"Chelsea Craft Brewing Co Llc","brewery_type":"micro","street":"463 E 173rd St","address_2":null,"address_3":null,"city":"Bronx","state":"New York","county_province":null,"postal_code":"10457-8105","country":"United States","longitude":"-73.9015282","latitude":"40.841904","phone":"7184848850","website_url":"http://www.chelseacraftbrewing.com","updated_at":"2023-02-21T01:41:59.300Z","created_at":"2023-02-21T01:41:59.300Z"},{"id":"cheshmeh-brewing-co-white-plains","name":"Cheshmeh Brewing Co","brewery_type":"planning","street":null,"address_2":null,"address_3":null,"city":"White Plains","state":"New York","county_province":null,"postal_code":"10605-3517","country":"United States","longitude":null,"latitude":null,"phone":null,"website_url":null,"updated_at":"2023-02-21T01:41:59.300Z","created_at":"2023-02-21T01:41:59.300Z"},{"id":"circa-brewing-co-brooklyn","name":"Circa Brewing Co","brewery_type":"brewpub","street":"141 Lawrence St","address_2":null,"address_3":null,"city":"Brooklyn","state":"New York","county_province":null,"postal_code":"11201","country":"United States","longitude":"-73.986155","latitude":"40.6917243","phone":"7188580055","website_url":"http://www.circabrewing.co","updated_at":"2023-02-21T01:41:59.300Z","created_at":"2023-02-21T01:41:59.300Z"},{"id":"cl-river-outpost-brewing-peekskill","name":"CL River Outpost Brewing","brewery_type":"brewpub","street":"5 John Walsh Blvd","address_2":null,"address_3":null,"city":"Peekskill","state":"New York","county_province":null,"postal_code":"10566","country":"United States","longitude":null,"latitude":null,"phone":null,"website_url":"http://riveroutpostbrewing.com","updated_at":"2023-02-21T01:41:59.300Z","created_at":"2023-02-21T01:41:59.300Z"},{"id":"clemson-bros-brewery-middletown","name":"Clemson Bros. Brewery","brewery_type":"brewpub","street":"22 Cottage St","address_2":null,"address_3":null,"city":"Middletown","state":"New York","county_province":null,"postal_code":"10940-5059","country":"United States","longitude":"-74.41622495","latitude":"41.44693028","phone":"8457754638","website_url":"http://www.clemsonbrewing.com","updated_at":"2023-02-21T01:41:59.300Z","created_at":"2023-02-21T01:41:59.300Z"},{"id":"climbing-bines-craft-ale-company-penn-yan","name":"Climbing Bines Craft Ale Company","brewery_type":"micro","street":"511 Hanson Point Rd","address_2":null,"address_3":null,"city":"Penn Yan","state":"New York","county_province":null,"postal_code":"14527-9718","country":"United States","longitude":null,"latitude":null,"phone":"6077450221","website_url":"http://www.climbingbineshopfarm.com","updated_at":"2023-02-21T01:41:59.300Z","created_at":"2023-02-21T01:41:59.300Z"},{"id":"college-point-brewery-college-point","name":"College Point Brewery","brewery_type":"planning","street":null,"address_2":null,"address_3":null,"city":"College Point","state":"New York","county_province":null,"postal_code":"11356-2715","country":"United States","longitude":null,"latitude":null,"phone":null,"website_url":null,"updated_at":"2023-02-21T01:41:59.300Z","created_at":"2023-02-21T01:41:59.300Z"},{"id":"common-roots-brewing-company-south-glens-falls","name":"Common Roots Brewing Company","brewery_type":"micro","street":"58 Saratoga Ave","address_2":null,"address_3":null,"city":"South Glens Falls","state":"New York","county_province":null,"postal_code":"12803-4837","country":"United States","longitude":null,"latitude":null,"phone":"5184098248","website_url":"http://www.commonrootsbrewing.com","updated_at":"2023-02-21T01:41:59.300Z","created_at":"2023-02-21T01:41:59.300Z"},{"id":"community-beer-works-buffalo","name":"Community Beer Works","brewery_type":"micro","street":"15 Lafayette Ave","address_2":null,"address_3":null,"city":"Buffalo","state":"New York","county_province":null,"postal_code":"14213-1344","country":"United States","longitude":"-78.8980697","latitude":"42.9198446","phone":"7167594677","website_url":"http://www.communitybeerworks.com","updated_at":"2023-02-21T01:41:59.300Z","created_at":"2023-02-21T01:41:59.300Z"},{"id":"coney-island-beer-brooklyn","name":"Coney Island Beer","brewery_type":"micro","street":"1904 Surf Ave","address_2":null,"address_3":null,"city":"Brooklyn","state":"New York","county_province":null,"postal_code":"11224-2410","country":"United States","longitude":"-73.98572367","latitude":"40.57502661","phone":"8184518452","website_url":"http://www.coneyislandbeer.com","updated_at":"2023-02-21T01:41:59.300Z","created_at":"2023-02-21T01:41:59.300Z"},{"id":"coopers-cave-ale-co-glens-falls","name":"Coopers Cave Ale Co","brewery_type":"brewpub","street":"2 Sagamore St","address_2":null,"address_3":null,"city":"Glens Falls","state":"New York","county_province":null,"postal_code":"12801-3179","country":"United States","longitude":"-73.6399437","latitude":"43.3177399","phone":"5187920007","website_url":"http://www.cooperscaveale.com","updated_at":"2023-02-21T01:41:59.300Z","created_at":"2023-02-21T01:41:59.300Z"},{"id":"cooperstown-brewing-co-oneonta","name":"Cooperstown Brewing Co","brewery_type":"proprietor","street":"41 Browne St.","address_2":null,"address_3":null,"city":"Oneonta","state":"New York","county_province":null,"postal_code":"13820","country":"United States","longitude":"-75.10942405","latitude":"42.45118586","phone":null,"website_url":null,"updated_at":"2023-02-21T01:41:59.300Z","created_at":"2023-02-21T01:41:59.300Z"},{"id":"copper-city-brewing-company-rome","name":"Copper City Brewing Company","brewery_type":"micro","street":"1111 Oneida St","address_2":null,"address_3":null,"city":"Rome","state":"New York","county_province":null,"postal_code":"13440-","country":"United States","longitude":"-75.43229951","latitude":"43.20521338","phone":"3152818987","website_url":"http://www.coppercitybrewing.com","updated_at":"2023-02-21T01:41:59.300Z","created_at":"2023-02-21T01:41:59.300Z"},{"id":"copper-turret-restaurant-and-brewhouse-morrisville","name":"Copper Turret Restaurant and Brewhouse","brewery_type":"brewpub","street":"17 W Main St","address_2":null,"address_3":null,"city":"Morrisville","state":"New York","county_province":null,"postal_code":"13408-","country":"United States","longitude":"-75.6487902","latitude":"42.89903413","phone":"3158257910","website_url":"http://www.copperturret.com","updated_at":"2023-02-21T01:41:59.300Z","created_at":"2023-02-21T01:41:59.300Z"},{"id":"cortland-beer-company-cortland","name":"Cortland Beer Company","brewery_type":"micro","street":"16 Court St","address_2":null,"address_3":null,"city":"Cortland","state":"New York","county_province":null,"postal_code":"13045-2604","country":"United States","longitude":"-76.17989771","latitude":"42.5994031","phone":"6076624389","website_url":"http://www.cortlandbeer.com","updated_at":"2023-02-21T01:41:59.300Z","created_at":"2023-02-21T01:41:59.300Z"},{"id":"council-rock-brewery-cooperstown","name":"Council Rock Brewery","brewery_type":"brewpub","street":"4861 State Highway 28 Ste 3","address_2":null,"address_3":null,"city":"Cooperstown","state":"New York","county_province":null,"postal_code":"13326-5229","country":"United States","longitude":null,"latitude":null,"phone":"6076433016","website_url":"http://www.councilrockbrewery.com","updated_at":"2023-02-21T01:41:59.300Z","created_at":"2023-02-21T01:41:59.300Z"},{"id":"country-town-farm-brewery-friendship","name":"Country Town Farm Brewery","brewery_type":"planning","street":null,"address_2":null,"address_3":null,"city":"Friendship","state":"New York","county_province":null,"postal_code":"14739","country":"United States","longitude":null,"latitude":null,"phone":"5858088995","website_url":null,"updated_at":"2023-02-21T01:41:59.300Z","created_at":"2023-02-21T01:41:59.300Z"},{"id":"cousins-revolution-ale-works-wappingers-falls","name":"Cousins Revolution Ale Works","brewery_type":"micro","street":"1582 US 9","address_2":null,"address_3":null,"city":"Wappingers Falls","state":"New York","county_province":null,"postal_code":"12590","country":"United States","longitude":"-73.91146279","latitude":"41.59803345","phone":"8452932739","website_url":"http://www.cousinsrevolution.com","updated_at":"2023-02-21T01:41:59.300Z","created_at":"2023-02-21T01:41:59.300Z"},{"id":"crafty-ales-and-lagers-phelps","name":"Crafty Ales and Lagers","brewery_type":"micro","street":"2 Exchange St","address_2":null,"address_3":null,"city":"Phelps","state":"New York","county_province":null,"postal_code":"14532-1010","country":"United States","longitude":"-77.056976","latitude":"42.9579011","phone":"3153321606","website_url":"http://www.drinkcraftyales.com","updated_at":"2023-02-21T01:41:59.300Z","created_at":"2023-02-21T01:41:59.300Z"},{"id":"crazy-williez-brewery-ilion","name":"Crazy Williez Brewery","brewery_type":"contract","street":"546 Silver St","address_2":null,"address_3":null,"city":"Ilion","state":"New York","county_province":null,"postal_code":"13357","country":"United States","longitude":null,"latitude":null,"phone":null,"website_url":null,"updated_at":"2023-02-21T01:41:59.300Z","created_at":"2023-02-21T01:41:59.300Z"},{"id":"critz-farms-brewing-and-cider-co-cazenovia","name":"Critz Farms Brewing & Cider Co.","brewery_type":"micro","street":"3232 Rippleton Rd","address_2":null,"address_3":null,"city":"Cazenovia","state":"New York","county_province":null,"postal_code":"13035-9693","country":"United States","longitude":"-75.8746342","latitude":"42.8805302","phone":"3156623355","website_url":"http://www.critzfarms.com","updated_at":"2023-02-21T01:41:59.300Z","created_at":"2023-02-21T01:41:59.300Z"},{"id":"crooked-ladder-brewery-riverhead","name":"Crooked Ladder Brewery","brewery_type":"micro","street":"70 W Main St","address_2":null,"address_3":null,"city":"Riverhead","state":"New York","county_province":null,"postal_code":"11901-2802","country":"United States","longitude":"-72.66319867","latitude":"40.91701672","phone":"6319025335","website_url":"http://www.crookedladderbrewingco.com","updated_at":"2023-02-21T01:41:59.300Z","created_at":"2023-02-21T01:41:59.300Z"},{"id":"crossroads-brewing-co-athens","name":"Crossroads Brewing Co","brewery_type":"brewpub","street":"21 2nd St","address_2":null,"address_3":null,"city":"Athens","state":"New York","county_province":null,"postal_code":"12015-1327","country":"United States","longitude":"-73.8100641","latitude":"42.2605541","phone":"5189452337","website_url":"http://www.crossroadsbrewingco.com","updated_at":"2023-02-21T01:41:59.300Z","created_at":"2023-02-21T01:41:59.300Z"},{"id":"davidson-brothers-restaurant-and-brewery-glens-falls","name":"Davidson Brothers Restaurant and Brewery","brewery_type":"brewpub","street":"184 Glen St Rte 9","address_2":null,"address_3":null,"city":"Glens Falls","state":"New York","county_province":null,"postal_code":"12801-0409","country":"United States","longitude":null,"latitude":null,"phone":"5187439026","website_url":"http://www.davidsonbrothers.com","updated_at":"2023-02-21T01:41:59.300Z","created_at":"2023-02-21T01:41:59.300Z"},{"id":"death-avenue-new-york","name":"Death Avenue","brewery_type":"brewpub","street":"315 10th Ave B/W 28th & 29th St.","address_2":null,"address_3":null,"city":"New York","state":"New York","county_province":null,"postal_code":"10001-1416","country":"United States","longitude":null,"latitude":null,"phone":"2126958080","website_url":"http://www.deathave.com","updated_at":"2023-02-21T01:41:59.300Z","created_at":"2023-02-21T01:41:59.300Z"},{"id":"decadent-ales-mamaroneck","name":"Decadent Ales","brewery_type":"micro","street":"607A E Boston Post Rd","address_2":null,"address_3":null,"city":"Mamaroneck","state":"New York","county_province":null,"postal_code":"10543-","country":"United States","longitude":"-73.72755206","latitude":"40.95193675","phone":"8005981085","website_url":"http://www.decadentales.com","updated_at":"2023-02-21T01:41:59.300Z","created_at":"2023-02-21T01:41:59.300Z"},{"id":"defiant-brewing-co-pearl-river","name":"Defiant Brewing Co","brewery_type":"brewpub","street":"6 E Dexter Plz","address_2":null,"address_3":null,"city":"Pearl River","state":"New York","county_province":null,"postal_code":"10965-2360","country":"United States","longitude":"-74.02302217","latitude":"41.06015492","phone":"8459208602","website_url":"http://www.defiantbrewing.com","updated_at":"2023-02-21T01:41:59.300Z","created_at":"2023-02-21T01:41:59.300Z"},{"id":"destination-unknown-beer-company-bay-shore","name":"Destination Unknown Beer Company","brewery_type":"micro","street":"1 S Chicago Ave Unit C","address_2":null,"address_3":null,"city":"Bay Shore","state":"New York","county_province":null,"postal_code":"11706-7000","country":"United States","longitude":null,"latitude":null,"phone":"6314852232","website_url":"http://www.destinationunknownbeercompany.com","updated_at":"2023-02-21T01:41:59.300Z","created_at":"2023-02-21T01:41:59.300Z"},{"id":"district-96-beer-factory-new-city","name":"District 96 Beer Factory","brewery_type":"brewpub","street":"395 S Main St","address_2":null,"address_3":null,"city":"New City","state":"New York","county_province":null,"postal_code":"10956","country":"United States","longitude":"-73.99100071","latitude":"41.13457391","phone":"8454992409","website_url":"http://www.district96beer.com","updated_at":"2023-02-21T01:41:59.300Z","created_at":"2023-02-21T01:41:59.300Z"},{"id":"diversion-brewing-co-chemung","name":"Diversion Brewing Co","brewery_type":"micro","street":"729 Wyncoop Creek Rd","address_2":null,"address_3":null,"city":"Chemung","state":"New York","county_province":null,"postal_code":"14825-9755","country":"United States","longitude":"-76.62211","latitude":"42.019871","phone":"6075429168","website_url":"http://www.diversionbrewing.com","updated_at":"2023-02-21T01:41:59.300Z","created_at":"2023-02-21T01:41:59.300Z"},{"id":"druthers-brewing-co-saratoga-springs","name":"Druthers Brewing Co","brewery_type":"brewpub","street":"381 Broadway","address_2":null,"address_3":null,"city":"Saratoga Springs","state":"New York","county_province":null,"postal_code":"12866-3111","country":"United States","longitude":null,"latitude":null,"phone":"5183065275","website_url":"http://www.druthersbrewing.com","updated_at":"2023-02-21T01:41:59.300Z","created_at":"2023-02-21T01:41:59.300Z"},{"id":"dublin-corners-farm-brewery-linwood","name":"Dublin Corners Farm Brewery","brewery_type":"micro","street":"1906 Main St","address_2":null,"address_3":null,"city":"Linwood","state":"New York","county_province":null,"postal_code":"14486-9707","country":"United States","longitude":null,"latitude":null,"phone":"5855384796","website_url":"http://www.dublincornersfarm.com","updated_at":"2023-02-21T01:41:59.300Z","created_at":"2023-02-21T01:41:59.300Z"},{"id":"duncans-abbey-tarrytown","name":"Duncan's Abbey","brewery_type":"micro","street":null,"address_2":null,"address_3":null,"city":"Tarrytown","state":"New York","county_province":null,"postal_code":"10591","country":"United States","longitude":null,"latitude":null,"phone":null,"website_url":"http://www.duncansabbey.com","updated_at":"2023-02-21T01:41:59.300Z","created_at":"2023-02-21T01:41:59.300Z"},{"id":"dyckman-beer-co-bronx","name":"Dyckman Beer Co","brewery_type":"contract","street":null,"address_2":null,"address_3":null,"city":"Bronx","state":"New York","county_province":null,"postal_code":"10451","country":"United States","longitude":null,"latitude":null,"phone":null,"website_url":"http://www.dyckmanbeerco.com","updated_at":"2023-02-21T01:41:59.300Z","created_at":"2023-02-21T01:41:59.300Z"},{"id":"eastern-front-brewing-co-mattituck","name":"Eastern Front Brewing Co","brewery_type":"micro","street":"425 Westphalin Rd","address_2":null,"address_3":null,"city":"Mattituck","state":"New York","county_province":null,"postal_code":"11952","country":"United States","longitude":null,"latitude":null,"phone":"6319051535","website_url":"http://www.facebook.com/easternfrontbrewing/","updated_at":"2023-02-21T01:41:59.300Z","created_at":"2023-02-21T01:41:59.300Z"},{"id":"eastwood-brewing-company-syracuse","name":"Eastwood Brewing Company","brewery_type":"micro","street":"108 Walter Dr","address_2":null,"address_3":null,"city":"Syracuse","state":"New York","county_province":null,"postal_code":"13206-2357","country":"United States","longitude":"-76.0980832","latitude":"43.0701121","phone":null,"website_url":"http://www.facebook.com/eastwoodbrewingcompany","updated_at":"2023-02-21T01:41:59.300Z","created_at":"2023-02-21T01:41:59.300Z"},{"id":"eli-fish-brewing-company-batavia","name":"Eli Fish Brewing Company","brewery_type":"brewpub","street":"109 Main St","address_2":null,"address_3":null,"city":"Batavia","state":"New York","county_province":null,"postal_code":"14020-2110","country":"United States","longitude":"-78.18219898","latitude":"42.99732747","phone":"5858150401","website_url":"http://www.elifishbrewing.com","updated_at":"2023-02-21T01:41:59.300Z","created_at":"2023-02-21T01:41:59.300Z"},{"id":"ellicottville-brewing-co-ellicottville","name":"Ellicottville Brewing Co","brewery_type":"micro","street":"28 Monroe St","address_2":null,"address_3":null,"city":"Ellicottville","state":"New York","county_province":null,"postal_code":"14731","country":"United States","longitude":"-78.67049701","latitude":"42.27511725","phone":"7166992537","website_url":"http://www.ellicottvillebrewing.com","updated_at":"2023-02-21T01:41:59.300Z","created_at":"2023-02-21T01:41:59.300Z"},{"id":"empire-brewing-co-syracuse","name":"Empire Brewing Co","brewery_type":"brewpub","street":"120 Walton St","address_2":null,"address_3":null,"city":"Syracuse","state":"New York","county_province":null,"postal_code":"13202-1571","country":"United States","longitude":"-76.15406625","latitude":"43.04804637","phone":"3156552337","website_url":"http://www.empirebrew.com","updated_at":"2023-02-21T01:41:59.300Z","created_at":"2023-02-21T01:41:59.300Z"},{"id":"empire-city-beer-company-new-york","name":"Empire City Beer Company","brewery_type":"planning","street":null,"address_2":null,"address_3":null,"city":"New York","state":"New York","county_province":null,"postal_code":"10012","country":"United States","longitude":null,"latitude":null,"phone":"9178040571","website_url":"http://www.hitemhard.com","updated_at":"2023-02-21T01:41:59.300Z","created_at":"2023-02-21T01:41:59.300Z"},{"id":"empire-farm-brewery-cazenovia","name":"Empire Farm Brewery","brewery_type":"micro","street":"33 Rippleton Rd","address_2":null,"address_3":null,"city":"Cazenovia","state":"New York","county_province":null,"postal_code":"13035-9601","country":"United States","longitude":"-75.8664345","latitude":"42.9197307","phone":"3156552337","website_url":"http://www.empirebrew.com","updated_at":"2023-02-21T01:41:59.300Z","created_at":"2023-02-21T01:41:59.300Z"},{"id":"equilibrium-brewery-middletown","name":"Equilibrium Brewery","brewery_type":"micro","street":"22 Henry Street","address_2":null,"address_3":null,"city":"Middletown","state":"New York","county_province":null,"postal_code":"10940","country":"United States","longitude":"-74.42143934","latitude":"41.44646965","phone":"8457754216","website_url":"http://www.eqbrew.com","updated_at":"2023-02-21T01:41:59.300Z","created_at":"2023-02-21T01:41:59.300Z"},{"id":"erie-canal-brewing-company-canastota","name":"Erie Canal Brewing Company","brewery_type":"micro","street":"135 S Peterboro St","address_2":null,"address_3":null,"city":"Canastota","state":"New York","county_province":null,"postal_code":"13032-1409","country":"United States","longitude":"-75.75153202","latitude":"43.07857637","phone":"3155105001","website_url":"http://www.eriecanalbrewingcompany.com","updated_at":"2023-02-21T01:41:59.300Z","created_at":"2023-02-21T01:41:59.300Z"},{"id":"fairport-brewing-co-fairport-1","name":"Fairport Brewing Co","brewery_type":"micro","street":"99 S Main St","address_2":null,"address_3":null,"city":"Fairport","state":"New York","county_province":null,"postal_code":"14450-2100","country":"United States","longitude":"-77.4416792","latitude":"43.0988098","phone":"5857520613","website_url":"http://www.fairportbrewing.com","updated_at":"2023-02-21T01:41:59.300Z","created_at":"2023-02-21T01:41:59.300Z"},{"id":"fairport-brewing-co-fairport-2","name":"Fairport Brewing Co","brewery_type":"micro","street":"1000 Turk Hill Rd Ste 298","address_2":null,"address_3":null,"city":"Fairport","state":"New York","county_province":null,"postal_code":"14450-8755","country":"United States","longitude":null,"latitude":null,"phone":"5857520613","website_url":null,"updated_at":"2023-02-21T01:41:59.300Z","created_at":"2023-02-21T01:41:59.300Z"},{"id":"felicias-atomic-brewhouse-and-bakery-trumansburg","name":"Felicia's Atomic Brewhouse and Bakery","brewery_type":"brewpub","street":"45 E Main St","address_2":null,"address_3":null,"city":"Trumansburg","state":"New York","county_province":null,"postal_code":"14886","country":"United States","longitude":"-76.65512","latitude":"42.539886","phone":"6072094229","website_url":"http://www.atomicbrewhouse.com","updated_at":"2023-02-21T01:41:59.300Z","created_at":"2023-02-21T01:41:59.300Z"},{"id":"ferrari-beer-company-dobbs-ferry","name":"Ferrari Beer Company","brewery_type":"micro","street":"160 Ashford Ave","address_2":null,"address_3":null,"city":"Dobbs Ferry","state":"New York","county_province":null,"postal_code":"10522-1906","country":"United States","longitude":"-73.86161615","latitude":"41.01452326","phone":"9146937340","website_url":"http://www.ferraribeer.com","updated_at":"2023-02-21T01:41:59.300Z","created_at":"2023-02-21T01:41:59.300Z"},{"id":"fifth-frame-brewing-co-rochester","name":"Fifth Frame Brewing Co.","brewery_type":"proprietor","street":"155 Saint Paul St","address_2":null,"address_3":null,"city":"Rochester","state":"New York","county_province":null,"postal_code":"14604-1144","country":"United States","longitude":"-77.61019544","latitude":"43.15996034","phone":"7168128897","website_url":"http://www.fifthframe.co","updated_at":"2023-02-21T01:41:59.300Z","created_at":"2023-02-21T01:41:59.300Z"},{"id":"fifth-hammer-brewing-company-long-island-city","name":"Fifth Hammer Brewing Company","brewery_type":"micro","street":"10-28 46th Ave","address_2":null,"address_3":null,"city":"Long Island City","state":"New York","county_province":null,"postal_code":"11101-5217","country":"United States","longitude":"-73.9515404","latitude":"40.7464921","phone":"7186632084","website_url":"http://www.fifthhammerbrewing.com","updated_at":"2023-02-21T01:41:59.300Z","created_at":"2023-02-21T01:41:59.300Z"},{"id":"finback-brewery-queens","name":"Finback Brewery","brewery_type":"micro","street":"78-01 77th Ave","address_2":null,"address_3":null,"city":"Queens","state":"New York","county_province":null,"postal_code":"11385-7518","country":"United States","longitude":"-73.8732597","latitude":"40.7067227","phone":"7186288600","website_url":"http://www.finbackbrewery.com","updated_at":"2023-02-21T01:41:59.300Z","created_at":"2023-02-21T01:41:59.300Z"},{"id":"finger-lakes-beer-co-hammondsport","name":"Finger Lakes Beer Co","brewery_type":"micro","street":"8462 State Route 54","address_2":null,"address_3":null,"city":"Hammondsport","state":"New York","county_province":null,"postal_code":"14840-9795","country":"United States","longitude":null,"latitude":null,"phone":"6075693311","website_url":null,"updated_at":"2023-02-21T01:41:59.300Z","created_at":"2023-02-21T01:41:59.300Z"},{"id":"fire-island-beer-co-bay-shore","name":"Fire Island Beer Co","brewery_type":"micro","street":"25 Drexel Dr","address_2":null,"address_3":null,"city":"Bay Shore","state":"New York","county_province":null,"postal_code":"11706-2234","country":"United States","longitude":null,"latitude":null,"phone":null,"website_url":"http://www.fireislandbeer.com","updated_at":"2023-02-21T01:41:59.300Z","created_at":"2023-02-21T01:41:59.300Z"},{"id":"five-and-20-spirits-and-brewing-westfield","name":"Five & 20 Spirits and Brewing","brewery_type":"brewpub","street":"8398 W Route 20","address_2":null,"address_3":null,"city":"Westfield","state":"New York","county_province":null,"postal_code":"14787-9748","country":"United States","longitude":null,"latitude":null,"phone":"7167939463","website_url":"http://www.fiveand20.com","updated_at":"2023-02-21T01:41:59.300Z","created_at":"2023-02-21T01:41:59.300Z"},{"id":"five-boroughs-brewing-co-brooklyn","name":"Five Boroughs Brewing Co","brewery_type":"micro","street":"215 47th St","address_2":null,"address_3":null,"city":"Brooklyn","state":"New York","county_province":null,"postal_code":"11220-1009","country":"United States","longitude":"-74.0144263","latitude":"40.6505216","phone":"7183558575","website_url":"http://www.fiveboroughs.com","updated_at":"2023-02-21T01:41:59.300Z","created_at":"2023-02-21T01:41:59.300Z"},{"id":"flagship-brewery-llc-staten-island","name":"Flagship Brewery, LLC.","brewery_type":"micro","street":"40 Minthorne St","address_2":null,"address_3":null,"city":"Staten Island","state":"New York","county_province":null,"postal_code":"10301-3241","country":"United States","longitude":"-74.0756332","latitude":"40.6372257","phone":"7184485284","website_url":"http://www.flagshipbrewery.nyc","updated_at":"2023-02-21T01:41:59.300Z","created_at":"2023-02-21T01:41:59.300Z"},{"id":"fleur-de-lis-brew-works-seneca-falls","name":"Fleur De Lis Brew Works","brewery_type":"micro","street":"3630 State Route 414","address_2":null,"address_3":null,"city":"Seneca Falls","state":"New York","county_province":null,"postal_code":"13148-9202","country":"United States","longitude":null,"latitude":null,"phone":"3156513260","website_url":"http://www.fleurdelisbrewworks.com","updated_at":"2023-02-21T01:41:59.300Z","created_at":"2023-02-21T01:41:59.300Z"},{"id":"flying-belgian-brewery-farmingdale","name":"Flying Belgian Brewery","brewery_type":"micro","street":"211 Main St","address_2":null,"address_3":null,"city":"Farmingdale","state":"New York","county_province":null,"postal_code":"11735-2675","country":"United States","longitude":"-73.44588651","latitude":"40.73359788","phone":"8184577548","website_url":"http://www.flyingbelgianbrewery.com","updated_at":"2023-02-21T01:41:59.300Z","created_at":"2023-02-21T01:41:59.300Z"},{"id":"flying-bison-brewing-co-buffalo","name":"Flying Bison Brewing Co","brewery_type":"micro","street":"840 Seneca St","address_2":null,"address_3":null,"city":"Buffalo","state":"New York","county_province":null,"postal_code":"14210-1414","country":"United States","longitude":"-78.8458326","latitude":"42.8758185","phone":"7168731557","website_url":"http://www.flyingbisonbrewing.com","updated_at":"2023-02-21T01:41:59.300Z","created_at":"2023-02-21T01:41:59.300Z"},{"id":"folksbier-brooklyn","name":"Folksbier","brewery_type":"regional","street":"101 Luquer St # 103","address_2":null,"address_3":null,"city":"Brooklyn","state":"New York","county_province":null,"postal_code":"11231-3308","country":"United States","longitude":"-74.00099132","latitude":"40.6779358","phone":null,"website_url":"http://www.folksbier.com","updated_at":"2023-02-21T01:41:59.300Z","created_at":"2023-02-21T01:41:59.300Z"},{"id":"foothill-hops-farm-brewery-munnsville","name":"Foothill Hops Farm Brewery","brewery_type":"micro","street":"5024 Bear Path Rd","address_2":null,"address_3":null,"city":"Munnsville","state":"New York","county_province":null,"postal_code":"13409-4114","country":"United States","longitude":"-75.58610382","latitude":"42.96463213","phone":"3154952451","website_url":"http://www.foothillhops.com","updated_at":"2023-02-21T01:41:59.300Z","created_at":"2023-02-21T01:41:59.300Z"},{"id":"foreign-objects-beer-company-new-paltz","name":"Foreign Objects Beer Company","brewery_type":"micro","street":null,"address_2":null,"address_3":null,"city":"New Paltz","state":"New York","county_province":null,"postal_code":"12561-3401","country":"United States","longitude":null,"latitude":null,"phone":"6092871397","website_url":"http://www.foreignobjectsbeer.com","updated_at":"2023-02-21T01:41:59.300Z","created_at":"2023-02-21T01:41:59.300Z"},{"id":"four-beasts-brewery-brooklyn","name":"Four Beasts Brewery","brewery_type":"planning","street":null,"address_2":null,"address_3":null,"city":"Brooklyn","state":"New York","county_province":null,"postal_code":"11215-2305","country":"United States","longitude":null,"latitude":null,"phone":"3478863834","website_url":null,"updated_at":"2023-02-21T01:41:59.300Z","created_at":"2023-02-21T01:41:59.300Z"},{"id":"fort-orange-brewing-albany","name":"Fort Orange Brewing","brewery_type":"micro","street":"450 N Pearl St","address_2":null,"address_3":null,"city":"Albany","state":"New York","county_province":null,"postal_code":"12204-1511","country":"United States","longitude":"-73.74427","latitude":"42.66372","phone":"5189923103","website_url":"http://www.fortorangebrewing.com","updated_at":"2023-02-21T01:41:59.300Z","created_at":"2023-02-21T01:41:59.300Z"},{"id":"four-mile-brewing-olean","name":"Four Mile Brewing","brewery_type":"micro","street":"202 E Green St","address_2":null,"address_3":null,"city":"Olean","state":"New York","county_province":null,"postal_code":"14760-3606","country":"United States","longitude":null,"latitude":null,"phone":"7163732337","website_url":"http://www.fourmilebrewing.com","updated_at":"2023-02-21T01:41:59.300Z","created_at":"2023-02-21T01:41:59.300Z"},{"id":"fox-n-hare-brewing-company-port-jervis","name":"Fox N Hare Brewing Company","brewery_type":"micro","street":"46 Front St","address_2":null,"address_3":null,"city":"Port Jervis","state":"New York","county_province":null,"postal_code":"12771-2415","country":"United States","longitude":"-74.69088263","latitude":"41.37253067","phone":"3172095767","website_url":"http://www.foxnhare-brewing.com","updated_at":"2023-02-21T01:41:59.300Z","created_at":"2023-02-21T01:41:59.300Z"},{"id":"freight-yard-brewing-llc-clay","name":"Freight Yard Brewing LLC","brewery_type":"proprietor","street":"4975 State Route 31","address_2":null,"address_3":null,"city":"Clay","state":"New York","county_province":null,"postal_code":"13041","country":"United States","longitude":"-76.17179556","latitude":"43.18592459","phone":"3158342529","website_url":"http://www.freightyardbrewing.com","updated_at":"2023-02-21T01:41:59.300Z","created_at":"2023-02-21T01:41:59.300Z"},{"id":"from-the-ground-brewery-red-hook","name":"From the Ground Brewery","brewery_type":"micro","street":"245 Guski Rd","address_2":null,"address_3":null,"city":"Red Hook","state":"New York","county_province":null,"postal_code":"12571-3316","country":"United States","longitude":null,"latitude":null,"phone":"8453098100","website_url":"http://www.fromthegroundbrewery.com","updated_at":"2023-02-21T01:41:59.300Z","created_at":"2023-02-21T01:41:59.300Z"},{"id":"full-boar-craft-brewery-north-syracuse","name":"Full Boar Craft Brewery","brewery_type":"micro","street":"628 S Main St Ste C","address_2":null,"address_3":null,"city":"North Syracuse","state":"New York","county_province":null,"postal_code":"13212-3687","country":"United States","longitude":null,"latitude":null,"phone":"3158024784","website_url":"http://www.fullboarbrew.com","updated_at":"2023-02-21T01:41:59.300Z","created_at":"2023-02-21T01:41:59.300Z"},{"id":"fulton-chain-craft-brewery-old-forge","name":"Fulton Chain Craft Brewery","brewery_type":"micro","street":"127 North St","address_2":null,"address_3":null,"city":"Old Forge","state":"New York","county_province":null,"postal_code":"13420-3300","country":"United States","longitude":"-74.97002515","latitude":"43.71499275","phone":"3155250222","website_url":"http://www.fccbrewery.com","updated_at":"2023-02-21T01:41:59.300Z","created_at":"2023-02-21T01:41:59.300Z"},{"id":"gael-brewing-co-geneva","name":"Gael Brewing Co","brewery_type":"micro","street":"4180 State Route 14","address_2":null,"address_3":null,"city":"Geneva","state":"New York","county_province":null,"postal_code":"14456-9753","country":"United States","longitude":null,"latitude":null,"phone":"3152200190","website_url":"http://www.gaelbrewing.com","updated_at":"2023-02-21T01:41:59.300Z","created_at":"2023-02-21T01:41:59.300Z"},{"id":"galaxy-brewing-co-binghamton","name":"Galaxy Brewing Co","brewery_type":"brewpub","street":"41 Court St, 153 & 157","address_2":null,"address_3":null,"city":"Binghamton","state":"New York","county_province":null,"postal_code":"13901-3104","country":"United States","longitude":null,"latitude":null,"phone":"6072174815","website_url":"http://www.galaxybrewingco.com","updated_at":"2023-02-21T01:41:59.300Z","created_at":"2023-02-21T01:41:59.300Z"},{"id":"garden-of-eve-farm-brewery-riverhead","name":"Garden of Eve Farm Brewery","brewery_type":"micro","street":"4558 Sound Ave","address_2":null,"address_3":null,"city":"Riverhead","state":"New York","county_province":null,"postal_code":"11901-1207","country":"United States","longitude":"-72.648395","latitude":"40.96775","phone":"6317228777","website_url":"http://www.facebook.com/farmbrewery","updated_at":"2023-02-21T01:41:59.300Z","created_at":"2023-02-21T01:41:59.300Z"},{"id":"garland-city-beer-works-watertown","name":"Garland City Beer Works","brewery_type":"planning","street":null,"address_2":null,"address_3":null,"city":"Watertown","state":"New York","county_province":null,"postal_code":"13601-2423","country":"United States","longitude":null,"latitude":null,"phone":"3157832577","website_url":"http://www.garlandcitybeerworks.com","updated_at":"2023-02-21T01:41:59.300Z","created_at":"2023-02-21T01:41:59.300Z"},{"id":"garvies-point-brewery-glen-cove","name":"Garvies Point Brewery","brewery_type":"micro","street":"1 Garvies Point Rd","address_2":null,"address_3":null,"city":"Glen Cove","state":"New York","county_province":null,"postal_code":"11542-2821","country":"United States","longitude":"-73.644083","latitude":"40.858979","phone":"5168151999","website_url":"http://www.garviespointbrewery.com","updated_at":"2023-02-21T01:41:59.300Z","created_at":"2023-02-21T01:41:59.300Z"},{"id":"gc-starkey-beer-company-geneva","name":"G.C. Starkey Beer Company","brewery_type":"contract","street":"68 Castle St Apt 1C","address_2":null,"address_3":null,"city":"Geneva","state":"New York","county_province":null,"postal_code":"14456-2648","country":"United States","longitude":null,"latitude":null,"phone":"6076784043","website_url":"http://www.starkeyslookout.com","updated_at":"2023-02-21T01:41:59.300Z","created_at":"2023-02-21T01:41:59.300Z"},{"id":"gene-mccarthysold-first-ward-brewing-company-buffalo","name":"Gene McCarthy's/Old First Ward Brewing Company","brewery_type":"brewpub","street":"73 Hamburg St","address_2":null,"address_3":null,"city":"Buffalo","state":"New York","county_province":null,"postal_code":"14204-2719","country":"United States","longitude":"-78.85957723","latitude":"42.86654075","phone":"7168558948","website_url":"http://www.genemccarthys.com","updated_at":"2023-02-21T01:41:59.300Z","created_at":"2023-02-21T01:41:59.300Z"},{"id":"genesee-brew-house-north-american-breweries-rochester","name":"Genesee Brew House / North American Breweries","brewery_type":"brewpub","street":"25 Cataract St","address_2":null,"address_3":null,"city":"Rochester","state":"New York","county_province":null,"postal_code":"14605","country":"United States","longitude":"-77.6147783","latitude":"43.163584","phone":"5852639200","website_url":"http://www.geneseebeer.com","updated_at":"2023-02-21T01:41:59.300Z","created_at":"2023-02-21T01:41:59.300Z"},{"id":"gentle-giant-brewing-company-pearl-river","name":"Gentle Giant Brewing Company","brewery_type":"micro","street":"7 N Main St","address_2":null,"address_3":null,"city":"Pearl River","state":"New York","county_province":null,"postal_code":"10965-2318","country":"United States","longitude":"-74.02171299","latitude":"41.05938885","phone":null,"website_url":"http://gentlegiantbrewing.com/","updated_at":"2023-02-21T01:41:59.300Z","created_at":"2023-02-21T01:41:59.300Z"},{"id":"gilded-otter-brewing-co-new-paltz","name":"Gilded Otter Brewing Co","brewery_type":"brewpub","street":"3 Main St","address_2":null,"address_3":null,"city":"New Paltz","state":"New York","county_province":null,"postal_code":"12561-1742","country":"United States","longitude":"-74.08958631","latitude":"41.7469771","phone":"8452561700","website_url":"http://www.gildedotter.com","updated_at":"2023-02-21T01:41:59.300Z","created_at":"2023-02-21T01:41:59.300Z"},{"id":"glenmere-brewing-co-inc-florida","name":"Glenmere Brewing Co, Inc","brewery_type":"micro","street":"55 Maple Ave","address_2":null,"address_3":null,"city":"Florida","state":"New York","county_province":null,"postal_code":"10921-1124","country":"United States","longitude":"-74.360033","latitude":"41.335404","phone":"8456511939","website_url":"http://www.glenmerebrewingco.com","updated_at":"2023-02-21T01:41:59.300Z","created_at":"2023-02-21T01:41:59.300Z"},{"id":"good-nature-farm-brewery-hamilton","name":"Good Nature Farm Brewery","brewery_type":"micro","street":"1727 State Route 12b","address_2":null,"address_3":null,"city":"Hamilton","state":"New York","county_province":null,"postal_code":"13346-2268","country":"United States","longitude":"-75.54560551","latitude":"42.807293","phone":"3158242337","website_url":"http://goodnaturebrewing.com","updated_at":"2023-02-21T01:41:59.300Z","created_at":"2023-02-21T01:41:59.300Z"},{"id":"gordon-biersch-brewery-restaurant-buffalo-cheektowaga","name":"Gordon Biersch Brewery Restaurant - Buffalo","brewery_type":"brewpub","street":"Store P102 Galleria Dr","address_2":null,"address_3":null,"city":"Cheektowaga","state":"New York","county_province":null,"postal_code":"14225-5408","country":"United States","longitude":null,"latitude":null,"phone":"7166830050","website_url":"http://www.craftworksrestaurants.com","updated_at":"2023-02-21T01:41:59.300Z","created_at":"2023-02-21T01:41:59.300Z"},{"id":"gordon-biersch-brewery-restaurant-syracuse-syracuse","name":"Gordon Biersch Brewery Restaurant - Syracuse","brewery_type":"brewpub","street":"304 Hiawatha Blvd West #J-101","address_2":null,"address_3":null,"city":"Syracuse","state":"New York","county_province":null,"postal_code":"13290","country":"United States","longitude":null,"latitude":null,"phone":"3154780990","website_url":"http://www.craftworksrestaurants.com","updated_at":"2023-02-21T01:41:59.300Z","created_at":"2023-02-21T01:41:59.300Z"},{"id":"great-adirondack-brewing-company-lake-placid","name":"Great Adirondack Brewing Company","brewery_type":"brewpub","street":"2442 Main St","address_2":null,"address_3":null,"city":"Lake Placid","state":"New York","county_province":null,"postal_code":"12946-3300","country":"United States","longitude":"-73.985385","latitude":"44.288397","phone":"5185231629","website_url":"http://www.adksteakandseafood.com","updated_at":"2023-02-21T01:41:59.300Z","created_at":"2023-02-21T01:41:59.300Z"},{"id":"great-flats-brewing-schenectady","name":"Great Flats Brewing","brewery_type":"micro","street":"151 Lafayette St","address_2":null,"address_3":null,"city":"Schenectady","state":"New York","county_province":null,"postal_code":"12305-2051","country":"United States","longitude":"-73.93839638","latitude":"42.81243538","phone":"5182800232","website_url":"http://www.greatflatsbrewing.com","updated_at":"2023-02-21T01:41:59.300Z","created_at":"2023-02-21T01:41:59.300Z"},{"id":"great-life-brewing-west-park","name":"Great Life Brewing","brewery_type":"micro","street":null,"address_2":null,"address_3":null,"city":"West Park","state":"New York","county_province":null,"postal_code":"12493","country":"United States","longitude":null,"latitude":null,"phone":"8453313700","website_url":"http://www.greatlifebrewing.com","updated_at":"2023-02-21T01:41:59.300Z","created_at":"2023-02-21T01:41:59.300Z"},{"id":"great-south-bay-brewery-bay-shore","name":"Great South Bay Brewery","brewery_type":"micro","street":"25 Drexel Dr","address_2":null,"address_3":null,"city":"Bay Shore","state":"New York","county_province":null,"postal_code":"11706-2234","country":"United States","longitude":null,"latitude":null,"phone":"6313928472","website_url":"http://www.greatsouthbaybrewery.com","updated_at":"2023-02-21T01:41:59.300Z","created_at":"2023-02-21T01:41:59.300Z"},{"id":"green-wolf-brewing-co-middleburgh","name":"Green Wolf Brewing Co","brewery_type":"micro","street":"315 Main St","address_2":null,"address_3":null,"city":"Middleburgh","state":"New York","county_province":null,"postal_code":"12122-","country":"United States","longitude":"-74.334814","latitude":"42.598257","phone":"5188276444","website_url":"http://www.greenwolfbrew.com","updated_at":"2023-02-21T01:41:59.300Z","created_at":"2023-02-21T01:41:59.300Z"},{"id":"greenpoint-beer-brooklyn","name":"Greenpoint Beer","brewery_type":"brewpub","street":"7 N 15th St","address_2":null,"address_3":null,"city":"Brooklyn","state":"New York","county_province":null,"postal_code":"11222-2838","country":"United States","longitude":"-73.99607617","latitude":"40.66893407","phone":"9177501541","website_url":"http://www.greenpointbeer.com","updated_at":"2023-02-21T01:41:59.300Z","created_at":"2023-02-21T01:41:59.300Z"},{"id":"greenport-harbor-brewing-co-llc-peconic","name":"Greenport Harbor Brewing Co, LLC","brewery_type":"brewpub","street":"42155 Main Rd","address_2":null,"address_3":null,"city":"Peconic","state":"New York","county_province":null,"postal_code":"11958-1502","country":"United States","longitude":"-72.4545703","latitude":"41.0415525","phone":"6315139019","website_url":"http://www.harborbrewing.com","updated_at":"2023-02-21T01:41:59.300Z","created_at":"2023-02-21T01:41:59.300Z"},{"id":"griffs-brewery-spencerport","name":"Griffs Brewery","brewery_type":"micro","street":"5324 W Ridge Rd","address_2":null,"address_3":null,"city":"Spencerport","state":"New York","county_province":null,"postal_code":"14559-1101","country":"United States","longitude":null,"latitude":null,"phone":"5856173843","website_url":"http://www.griffsbrewery.com","updated_at":"2023-02-21T01:41:59.300Z","created_at":"2023-02-21T01:41:59.300Z"},{"id":"grimm-artisanal-ales-brooklyn","name":"Grimm Artisanal Ales","brewery_type":"micro","street":"990 Metropolitan Ave","address_2":null,"address_3":null,"city":"Brooklyn","state":"New York","county_province":null,"postal_code":"11211-2607","country":"United States","longitude":"-73.93651911","latitude":"40.7142757","phone":null,"website_url":"http://GrimmAles.com","updated_at":"2023-02-21T01:41:59.300Z","created_at":"2023-02-21T01:41:59.300Z"},{"id":"grist-iron-brewing-co-burdett","name":"Grist Iron Brewing Co.","brewery_type":"brewpub","street":"4880 State Route 414","address_2":null,"address_3":null,"city":"Burdett","state":"New York","county_province":null,"postal_code":"14818-9729","country":"United States","longitude":null,"latitude":null,"phone":"6078822739","website_url":"http://www.gristironbrewing.com","updated_at":"2023-02-21T01:41:59.300Z","created_at":"2023-02-21T01:41:59.300Z"},{"id":"gun-hill-brewing-co-bronx","name":"Gun Hill Brewing Co","brewery_type":"micro","street":"3227 Laconia Ave","address_2":null,"address_3":null,"city":"Bronx","state":"New York","county_province":null,"postal_code":"10469-1403","country":"United States","longitude":"-73.855814","latitude":"40.8721114","phone":"7188810010","website_url":"http://www.gunhillbrewing.com","updated_at":"2023-02-21T01:41:59.300Z","created_at":"2023-02-21T01:41:59.300Z"},{"id":"hamburg-brewing-company-hamburg","name":"Hamburg Brewing Company","brewery_type":"micro","street":"6553 Boston State Rd","address_2":null,"address_3":null,"city":"Hamburg","state":"New York","county_province":null,"postal_code":"14075-6630","country":"United States","longitude":null,"latitude":null,"phone":"7166493249","website_url":"http://www.hamburgbrewing.com","updated_at":"2023-02-21T01:41:59.300Z","created_at":"2023-02-21T01:41:59.300Z"},{"id":"hank-hudson-brewing-at-fairways-of-halfmoon-mechanicville","name":"Hank Hudson Brewing At Fairways of Halfmoon","brewery_type":"brewpub","street":"17 Johnson Rd","address_2":null,"address_3":null,"city":"Mechanicville","state":"New York","county_province":null,"postal_code":"12118-3505","country":"United States","longitude":null,"latitude":null,"phone":"5186641578","website_url":null,"updated_at":"2023-02-21T01:41:59.300Z","created_at":"2023-02-21T01:41:59.300Z"},{"id":"harbor-head-brewing-co-northport","name":"Harbor Head Brewing Co","brewery_type":"micro","street":"81 Fort Salonga Rd","address_2":null,"address_3":null,"city":"Northport","state":"New York","county_province":null,"postal_code":"11768-2889","country":"United States","longitude":"-73.3539709","latitude":"40.8908555","phone":"6318155588","website_url":"http://www.harborheadbrew.com","updated_at":"2023-02-21T01:41:59.300Z","created_at":"2023-02-21T01:41:59.300Z"},{"id":"harlem-blue-beer-new-york","name":"Harlem Blue Beer","brewery_type":"proprietor","street":"2214 Frederick Douglass Blvd Ste 267","address_2":null,"address_3":null,"city":"New York","state":"New York","county_province":null,"postal_code":"10026-1123","country":"United States","longitude":null,"latitude":null,"phone":null,"website_url":"http://www.harlemblue.com","updated_at":"2023-02-21T01:41:59.300Z","created_at":"2023-02-21T01:41:59.300Z"},{"id":"harlem-brewing-co-new-york","name":"Harlem Brewing Co","brewery_type":"contract","street":"2 W 123rd St","address_2":null,"address_3":null,"city":"New York","state":"New York","county_province":null,"postal_code":"10027-5623","country":"United States","longitude":"-73.94532799","latitude":"40.8058068","phone":"8885596735","website_url":"http://www.harlembrewingcompany.com","updated_at":"2023-02-21T01:41:59.300Z","created_at":"2023-02-21T01:41:59.300Z"},{"id":"heartland-brewery-new-york","name":"Heartland Brewery","brewery_type":"contract","street":"35 Union Sq W Frnt 1","address_2":null,"address_3":null,"city":"New York","state":"New York","county_province":null,"postal_code":"10003-3200","country":"United States","longitude":null,"latitude":null,"phone":"2126453400","website_url":"http://www.heartlandbrewery.com","updated_at":"2023-02-21T01:41:59.300Z","created_at":"2023-02-21T01:41:59.300Z"},{"id":"heavily-brewing-company-montour-falls","name":"Heavily Brewing Company","brewery_type":"micro","street":"2471 Hayes Rd","address_2":null,"address_3":null,"city":"Montour Falls","state":"New York","county_province":null,"postal_code":"14865","country":"United States","longitude":"-76.82625029","latitude":"42.35452911","phone":"6075352739","website_url":"http://www.heavilybrewingcompany.com","updated_at":"2023-02-21T01:41:59.300Z","created_at":"2023-02-21T01:41:59.300Z"},{"id":"helderberg-brewery-rensselaerville","name":"Helderberg Brewery","brewery_type":"micro","street":"63 Huyck Rd","address_2":null,"address_3":null,"city":"Rensselaerville","state":"New York","county_province":null,"postal_code":"12147-2108","country":"United States","longitude":null,"latitude":null,"phone":"5187975100","website_url":"http://careyinstitute.org/programs/sustainable-communities/helderberg-brewery-taproom/","updated_at":"2023-02-21T01:41:59.300Z","created_at":"2023-02-21T01:41:59.300Z"},{"id":"helderberg-mountain-brewing-company-east-berne","name":"Helderberg Mountain Brewing Company","brewery_type":"micro","street":"83 Main St","address_2":null,"address_3":null,"city":"East Berne","state":"New York","county_province":null,"postal_code":"12059-2020","country":"United States","longitude":"-74.07306079","latitude":"42.61509627","phone":"5189373606","website_url":"http://www.helderbergmountainbrewingcompany.com","updated_at":"2023-02-21T01:41:59.300Z","created_at":"2023-02-21T01:41:59.300Z"},{"id":"heroes-brewing-company-rochester","name":"Heroes Brewing Company","brewery_type":"micro","street":"543 Atlantic Ave","address_2":null,"address_3":null,"city":"Rochester","state":"New York","county_province":null,"postal_code":"14609","country":"United States","longitude":"-77.56906417843642","latitude":"43.156347546356564","phone":"5854345472","website_url":"https://heroesbrewco.square.site","updated_at":"2023-02-21T01:41:59.300Z","created_at":"2023-02-21T01:41:59.300Z"},{"id":"high-perch-brewing-company-amsterdam","name":"High Perch Brewing Company","brewery_type":"micro","street":"1417 Kania Rd","address_2":null,"address_3":null,"city":"Amsterdam","state":"New York","county_province":null,"postal_code":"12010-6610","country":"United States","longitude":null,"latitude":null,"phone":null,"website_url":null,"updated_at":"2023-02-21T01:41:59.300Z","created_at":"2023-02-21T01:41:59.300Z"},{"id":"hill-country-farm-brewery-jamesville","name":"Hill Country Farm Brewery","brewery_type":"planning","street":null,"address_2":null,"address_3":null,"city":"Jamesville","state":"New York","county_province":null,"postal_code":"13078-9637","country":"United States","longitude":null,"latitude":null,"phone":"3157667885","website_url":"http://Hillcountryfarmbrewery.com","updated_at":"2023-02-21T01:41:59.300Z","created_at":"2023-02-21T01:41:59.300Z"},{"id":"hofbrauhaus-buffalo-buffalo","name":"Hofbrauhaus Buffalo","brewery_type":"planning","street":null,"address_2":null,"address_3":null,"city":"Buffalo","state":"New York","county_province":null,"postal_code":"14221-4616","country":"United States","longitude":null,"latitude":null,"phone":"7165631781","website_url":"http://www.facebook.com/Hofbrauhaus-Buffalo-476335022466386/","updated_at":"2023-02-21T01:41:59.300Z","created_at":"2023-02-21T01:41:59.300Z"},{"id":"honey-hollow-brewery-earlton","name":"Honey Hollow Brewery","brewery_type":"micro","street":"376 E. Honey Rd.","address_2":null,"address_3":null,"city":"Earlton","state":"New York","county_province":null,"postal_code":"12058","country":"United States","longitude":null,"latitude":null,"phone":"5189665560","website_url":"http://www.honeyhollowbrewery.com","updated_at":"2023-02-21T01:41:59.300Z","created_at":"2023-02-21T01:41:59.300Z"},{"id":"hop-barn-brewing-greenville","name":"Hop Barn Brewing","brewery_type":"micro","street":"94 Maple Ave","address_2":null,"address_3":null,"city":"Greenville","state":"New York","county_province":null,"postal_code":"12083-3311","country":"United States","longitude":"-74.05510817","latitude":"42.42134333","phone":"5189564762","website_url":"http://hopbarnbrewing.com","updated_at":"2023-02-21T01:41:59.300Z","created_at":"2023-02-21T01:41:59.300Z"},{"id":"hopshire-farm-and-brewery-freeville","name":"Hopshire Farm and Brewery","brewery_type":"micro","street":"1771 Dryden Rd","address_2":null,"address_3":null,"city":"Freeville","state":"New York","county_province":null,"postal_code":"13068-","country":"United States","longitude":null,"latitude":null,"phone":"6072791243","website_url":"http://www.hopshire.com","updated_at":"2023-02-21T01:41:59.300Z","created_at":"2023-02-21T01:41:59.300Z"},{"id":"kingston-standard-brewing-co-kingston","name":"Kingston Standard Brewing Co.","brewery_type":"planning","street":null,"address_2":null,"address_3":null,"city":"Kingston","state":"New York","county_province":null,"postal_code":"12401","country":"United States","longitude":null,"latitude":null,"phone":null,"website_url":"http://www.kingstonstandard.com","updated_at":"2023-02-21T01:41:59.300Z","created_at":"2023-02-21T01:41:59.300Z"},{"id":"hudson-ale-works-highland","name":"Hudson Ale Works","brewery_type":"brewpub","street":"17 Milton Ave","address_2":null,"address_3":null,"city":"Highland","state":"New York","county_province":null,"postal_code":"12528-1409","country":"United States","longitude":"-73.96390393","latitude":"41.717539","phone":"8453842531","website_url":"http://www.hudsonaleworks.com","updated_at":"2023-02-21T01:41:59.300Z","created_at":"2023-02-21T01:41:59.300Z"},{"id":"hudson-valley-brewery-beacon","name":"Hudson Valley Brewery","brewery_type":"micro","street":"7 E Main St","address_2":null,"address_3":null,"city":"Beacon","state":"New York","county_province":null,"postal_code":"12508-3301","country":"United States","longitude":"-73.9630491","latitude":"41.5016501","phone":"8452189156","website_url":"http://www.hudsonvalleybrewery.com","updated_at":"2023-02-21T01:41:59.300Z","created_at":"2023-02-21T01:41:59.300Z"},{"id":"hyde-park-brewing-co-hyde-park","name":"Hyde Park Brewing Co","brewery_type":"micro","street":"4076 Albany Post Rd","address_2":null,"address_3":null,"city":"Hyde Park","state":"New York","county_province":null,"postal_code":"12538-1934","country":"United States","longitude":"-73.93007747","latitude":"41.76674824","phone":"8452298277","website_url":"http://www.hydeparkbrewing.com","updated_at":"2023-02-21T01:41:59.300Z","created_at":"2023-02-21T01:41:59.300Z"},{"id":"iconyc-brewing-company-long-island-city","name":"Iconyc Brewing Company","brewery_type":"micro","street":"45-13 34th Ave","address_2":null,"address_3":null,"city":"Long Island City","state":"New York","county_province":null,"postal_code":"11101-1041","country":"United States","longitude":null,"latitude":null,"phone":"3473421360","website_url":"http://www.iconycbrewing.com","updated_at":"2023-02-21T01:41:59.300Z","created_at":"2023-02-21T01:41:59.300Z"},{"id":"in-law-brewing-co-chase-mills","name":"In-Law Brewing Co","brewery_type":"micro","street":"5868 County Route 14","address_2":null,"address_3":null,"city":"Chase Mills","state":"New York","county_province":null,"postal_code":"13621-3102","country":"United States","longitude":"-75.04830452","latitude":"44.88140997","phone":null,"website_url":"http://www.in-lawbrewingcompany.com","updated_at":"2023-02-21T01:41:59.300Z","created_at":"2023-02-21T01:41:59.300Z"},{"id":"indian-ladder-farmstead-brewery-and-cidery-altamont","name":"Indian Ladder Farmstead Brewery and Cidery","brewery_type":"micro","street":"342 Altamont Rd","address_2":null,"address_3":null,"city":"Altamont","state":"New York","county_province":null,"postal_code":"12009-3500","country":"United States","longitude":null,"latitude":null,"phone":"5185771484","website_url":"http://www.ilfcb.com","updated_at":"2023-02-21T01:41:59.300Z","created_at":"2023-02-21T01:41:59.300Z"},{"id":"industrial-arts-brewing-co-garnerville","name":"Industrial Arts Brewing Co.","brewery_type":"micro","street":"55 W Railroad Ave # 25W","address_2":null,"address_3":null,"city":"Garnerville","state":"New York","county_province":null,"postal_code":"10923-1261","country":"United States","longitude":null,"latitude":null,"phone":"8459428776","website_url":"http://www.industrialartsbrewing.com","updated_at":"2023-02-21T01:41:59.300Z","created_at":"2023-02-21T01:41:59.300Z"},{"id":"interboro-spirits-and-ales-brooklyn","name":"Interboro Spirits And Ales","brewery_type":"brewpub","street":"942 Grand St","address_2":null,"address_3":null,"city":"Brooklyn","state":"New York","county_province":null,"postal_code":"11211-2707","country":"United States","longitude":"-73.9369567","latitude":"40.7126813","phone":"6462455417","website_url":"http://www.interboro.nyc","updated_at":"2023-02-21T01:41:59.300Z","created_at":"2023-02-21T01:41:59.300Z"},{"id":"irish-mafia-brewing-co-bloomfield","name":"Irish Mafia Brewing Co","brewery_type":"brewpub","street":"2971 Whalen Rd","address_2":null,"address_3":null,"city":"Bloomfield","state":"New York","county_province":null,"postal_code":"14469-9786","country":"United States","longitude":"-77.38938696","latitude":"42.89268134","phone":"5852715172","website_url":"http://www.irishmafiabrewing.com","updated_at":"2023-02-21T01:41:59.300Z","created_at":"2023-02-21T01:41:59.300Z"},{"id":"iron-flamingo-brewery-corning","name":"Iron Flamingo Brewery","brewery_type":"micro","street":"196 Baker St","address_2":null,"address_3":null,"city":"Corning","state":"New York","county_province":null,"postal_code":"14830-2074","country":"United States","longitude":"-77.0564722","latitude":"42.1551591","phone":"6079364766","website_url":"http://www.ironflamingobrewery.com","updated_at":"2023-02-21T01:41:59.300Z","created_at":"2023-02-21T01:41:59.300Z"},{"id":"iron-tug-brewing-rochester","name":"Iron Tug Brewing","brewery_type":"micro","street":"371 Park Ave","address_2":null,"address_3":null,"city":"Rochester","state":"New York","county_province":null,"postal_code":"14607","country":"United States","longitude":"-77.58587345397774","latitude":"43.15024612734299","phone":"5857385606","website_url":"http://www.irontugbrewing.com","updated_at":"2023-02-21T01:41:59.300Z","created_at":"2023-02-21T01:41:59.300Z"},{"id":"island-to-island-brewery-brooklyn","name":"Island To Island Brewery","brewery_type":"brewpub","street":"642 Rogers Ave","address_2":null,"address_3":null,"city":"Brooklyn","state":"New York","county_province":null,"postal_code":"11226-1502","country":"United States","longitude":"-73.95325995","latitude":"40.6558144","phone":"3479741985","website_url":"http://www.islandtoislandbrewery.com","updated_at":"2023-02-21T01:41:59.300Z","created_at":"2023-02-21T01:41:59.300Z"},{"id":"ithaca-beer-co-ithaca","name":"Ithaca Beer Co","brewery_type":"regional","street":"122 Ithaca Beer Dr","address_2":null,"address_3":null,"city":"Ithaca","state":"New York","county_province":null,"postal_code":"14850-8813","country":"United States","longitude":null,"latitude":null,"phone":"6072730766","website_url":"http://www.ithacabeer.com","updated_at":"2023-02-21T01:41:59.300Z","created_at":"2023-02-21T01:41:59.300Z"},{"id":"jamesport-farm-brewery-riverhead","name":"Jamesport Farm Brewery","brewery_type":"micro","street":"5873 Sound Ave","address_2":null,"address_3":null,"city":"Riverhead","state":"New York","county_province":null,"postal_code":"11901-5611","country":"United States","longitude":"-72.648395","latitude":"40.96775","phone":"6317228111","website_url":"http://www.jamesportbrewhouse.com","updated_at":"2023-02-21T01:41:59.300Z","created_at":"2023-02-21T01:41:59.300Z"},{"id":"jamestown-brewing-company-jamestown","name":"Jamestown Brewing Company","brewery_type":"planning","street":null,"address_2":null,"address_3":null,"city":"Jamestown","state":"New York","county_province":null,"postal_code":"14701-5110","country":"United States","longitude":null,"latitude":null,"phone":"7168644257","website_url":null,"updated_at":"2023-02-21T01:41:59.300Z","created_at":"2023-02-21T01:41:59.300Z"},{"id":"k2-brothers-brewing-rochester","name":"K2 Brothers Brewing","brewery_type":"brewpub","street":"1221 Empire Blvd","address_2":null,"address_3":null,"city":"Rochester","state":"New York","county_province":null,"postal_code":"14609-5946","country":"United States","longitude":"-77.549992","latitude":"43.17664","phone":"5854131997","website_url":"http://www.K2Brewing.com","updated_at":"2023-02-21T01:41:59.300Z","created_at":"2023-02-21T01:41:59.300Z"},{"id":"keegan-ales-kingston","name":"Keegan Ales","brewery_type":"micro","street":"20 Saint James St","address_2":null,"address_3":null,"city":"Kingston","state":"New York","county_province":null,"postal_code":"12401-4534","country":"United States","longitude":"-74.012151","latitude":"41.931636","phone":"8453312739","website_url":"http://www.keeganales.com","updated_at":"2023-02-21T01:41:59.300Z","created_at":"2023-02-21T01:41:59.300Z"},{"id":"keg-and-lantern-brewing-co-brooklyn","name":"Keg & Lantern Brewing Co","brewery_type":"brewpub","street":"97 Nassau Ave","address_2":null,"address_3":null,"city":"Brooklyn","state":"New York","county_province":null,"postal_code":"11222-3081","country":"United States","longitude":"-73.95031963","latitude":"40.7241037","phone":"7183895050","website_url":"http://www.kegandlanternbrooklyn.com","updated_at":"2023-02-21T01:41:59.300Z","created_at":"2023-02-21T01:41:59.300Z"},{"id":"kelso-beer-company-brooklyn","name":"KelSo Beer Company","brewery_type":"contract","street":"529 Waverly Ave","address_2":null,"address_3":null,"city":"Brooklyn","state":"New York","county_province":null,"postal_code":"11238-2701","country":"United States","longitude":"-73.96564","latitude":"40.68267586","phone":null,"website_url":"http://www.kelsoofbrooklyn.com","updated_at":"2023-02-21T01:41:59.300Z","created_at":"2023-02-21T01:41:59.300Z"},{"id":"keuka-brewing-co-hammondsport","name":"Keuka Brewing Co","brewery_type":"micro","street":"8572 Briglin Rd","address_2":null,"address_3":null,"city":"Hammondsport","state":"New York","county_province":null,"postal_code":"14840-9633","country":"United States","longitude":null,"latitude":null,"phone":"6078684648","website_url":"http://www.keukabrewingcompany.com","updated_at":"2023-02-21T01:41:59.300Z","created_at":"2023-02-21T01:41:59.300Z"},{"id":"kills-boro-brewing-company-staten-island","name":"Kills Boro Brewing Company","brewery_type":"micro","street":"62 Van Duzer St","address_2":null,"address_3":null,"city":"Staten Island","state":"New York","county_province":null,"postal_code":"10301-3226","country":"United States","longitude":"-74.07740788","latitude":"40.636479","phone":"3472778680","website_url":"http://www.killsboro.com","updated_at":"2023-02-21T01:41:59.300Z","created_at":"2023-02-21T01:41:59.300Z"},{"id":"kings-county-brewers-collective-brooklyn","name":"Kings County Brewers Collective","brewery_type":"micro","street":"381 Troutman St","address_2":null,"address_3":null,"city":"Brooklyn","state":"New York","county_province":null,"postal_code":"11237-2613","country":"United States","longitude":"-73.9236202","latitude":"40.7060306","phone":"7182882891","website_url":"http://www.kcbcbeer.com","updated_at":"2023-02-21T01:41:59.300Z","created_at":"2023-02-21T01:41:59.300Z"},{"id":"knucklehead-craft-brewing-webster","name":"Knucklehead Craft Brewing","brewery_type":"brewpub","street":"426 Ridge Rd","address_2":null,"address_3":null,"city":"Webster","state":"New York","county_province":null,"postal_code":"14580-1793","country":"United States","longitude":"-77.51128726","latitude":"43.20572922","phone":"5853476236","website_url":"http://www.knuckleheadcraftbrewing.com","updated_at":"2023-02-21T01:41:59.300Z","created_at":"2023-02-21T01:41:59.300Z"},{"id":"lafayette-brewing-co-buffalo","name":"Lafayette Brewing Co","brewery_type":"brewpub","street":"391 Washington St","address_2":null,"address_3":null,"city":"Buffalo","state":"New York","county_province":null,"postal_code":"14203-2108","country":"United States","longitude":"-78.8734526","latitude":"42.8847967","phone":"7168560062","website_url":"http://www.panamericangrill.com","updated_at":"2023-02-21T01:41:59.300Z","created_at":"2023-02-21T01:41:59.300Z"},{"id":"lake-drum-brewing-geneva","name":"Lake Drum Brewing","brewery_type":"micro","street":"16 E Castle St","address_2":null,"address_3":null,"city":"Geneva","state":"New York","county_province":null,"postal_code":"14456-2400","country":"United States","longitude":"-76.98094035","latitude":"42.8677738","phone":"3157891200","website_url":"http://www.lakedrumbrewing.com","updated_at":"2023-02-21T01:41:59.300Z","created_at":"2023-02-21T01:41:59.300Z"},{"id":"lake-george-beer-hub-queensbury","name":"Lake George Beer Hub","brewery_type":"micro","street":"1043 State Route 9","address_2":null,"address_3":null,"city":"Queensbury","state":"New York","county_province":null,"postal_code":"12804-1374","country":"United States","longitude":null,"latitude":null,"phone":"5182230372","website_url":"http://www.lakegeorgebrewingcompany.com","updated_at":"2023-02-21T01:41:59.300Z","created_at":"2023-02-21T01:41:59.300Z"},{"id":"lake-placid-pub-and-brewery-lake-placid","name":"Lake Placid Pub and Brewery","brewery_type":"brewpub","street":"813 Mirror Lake Dr","address_2":null,"address_3":null,"city":"Lake Placid","state":"New York","county_province":null,"postal_code":"12946-3829","country":"United States","longitude":"-73.98108306","latitude":"44.28340973","phone":"5185233813","website_url":"http://www.ubuale.com","updated_at":"2023-02-21T01:41:59.300Z","created_at":"2023-02-21T01:41:59.300Z"},{"id":"ledge-hill-brewing-co-westport","name":"Ledge Hill Brewing Co","brewery_type":"micro","street":"6700 Main St","address_2":null,"address_3":null,"city":"Westport","state":"New York","county_province":null,"postal_code":"12993-2007","country":"United States","longitude":"-73.452543","latitude":"44.188294","phone":"5189121783","website_url":"http://www.ledgehillbrewing.com/","updated_at":"2023-02-21T01:41:59.300Z","created_at":"2023-02-21T01:41:59.300Z"},{"id":"lic-beer-project-long-island-city","name":"LIC Beer Project","brewery_type":"micro","street":"3928 23rd St","address_2":null,"address_3":null,"city":"Long Island City","state":"New York","county_province":null,"postal_code":"11101-4817","country":"United States","longitude":"-73.942849","latitude":"40.75063","phone":"9178326840","website_url":"http://licbeerproject.com","updated_at":"2023-02-21T01:41:59.300Z","created_at":"2023-02-21T01:41:59.300Z"},{"id":"limestone-creek-brewing-company-manlius","name":"Limestone Creek Brewing Company","brewery_type":"planning","street":null,"address_2":null,"address_3":null,"city":"Manlius","state":"New York","county_province":null,"postal_code":"13104","country":"United States","longitude":null,"latitude":null,"phone":null,"website_url":null,"updated_at":"2023-02-21T01:41:59.300Z","created_at":"2023-02-21T01:41:59.300Z"},{"id":"lincoln-hill-farm-canandaigua","name":"Lincoln Hill Farm","brewery_type":"planning","street":null,"address_2":null,"address_3":null,"city":"Canandaigua","state":"New York","county_province":null,"postal_code":"14424-8826","country":"United States","longitude":null,"latitude":null,"phone":"5857529466","website_url":"http://www.fingerlakingood.farm","updated_at":"2023-02-21T01:41:59.300Z","created_at":"2023-02-21T01:41:59.300Z"},{"id":"lineup-brewing-llc-brooklyn","name":"Lineup Brewing LLC","brewery_type":"micro","street":"33 35th St Unit 6A","address_2":null,"address_3":null,"city":"Brooklyn","state":"New York","county_province":null,"postal_code":"11232-2210","country":"United States","longitude":null,"latitude":null,"phone":"7204222053","website_url":"http://www.lineupbrewing.com","updated_at":"2023-02-21T01:41:59.300Z","created_at":"2023-02-21T01:41:59.300Z"},{"id":"liquid-shoes-brewing-corning","name":"Liquid Shoes Brewing","brewery_type":"micro","street":"26 E Market St","address_2":null,"address_3":null,"city":"Corning","state":"New York","county_province":null,"postal_code":"14830","country":"United States","longitude":"-77.05301289","latitude":"42.14306479","phone":"6074639726","website_url":"http://www.liquidshoesbrewing.com","updated_at":"2023-02-21T01:41:59.300Z","created_at":"2023-02-21T01:41:59.300Z"},{"id":"liquid-state-brewing-company-ithaca","name":"Liquid State Brewing Company","brewery_type":"micro","street":"620 West Green Street","address_2":null,"address_3":null,"city":"Ithaca","state":"New York","county_province":null,"postal_code":"14850","country":"United States","longitude":"-76.5077547","latitude":"42.43844312","phone":null,"website_url":"http://www.liquidstatebrewing.com","updated_at":"2023-02-21T01:41:59.300Z","created_at":"2023-02-21T01:41:59.300Z"},{"id":"lithology-brewing-farmingdale","name":"Lithology Brewing","brewery_type":"proprietor","street":"211 Main St Ste A","address_2":null,"address_3":null,"city":"Farmingdale","state":"New York","county_province":null,"postal_code":"11735-2675","country":"United States","longitude":null,"latitude":null,"phone":"6316783613","website_url":"http://Lithologybrewing.com","updated_at":"2023-02-21T01:41:59.300Z","created_at":"2023-02-21T01:41:59.300Z"},{"id":"livingoods-restaurant-and-brewery-peru","name":"Livingood's Restaurant & Brewery","brewery_type":"brewpub","street":"697 Bear Swamp Rd","address_2":null,"address_3":null,"city":"Peru","state":"New York","county_province":null,"postal_code":"12972-","country":"United States","longitude":"-73.518542","latitude":"44.576563","phone":"5184206331","website_url":"http://www.livingoodsresturant.com","updated_at":"2023-02-21T01:41:59.300Z","created_at":"2023-02-21T01:41:59.300Z"},{"id":"local-315-brewing-company-warners","name":"Local 315 Brewing Company","brewery_type":"micro","street":"3160 Warners Rd","address_2":null,"address_3":null,"city":"Warners","state":"New York","county_province":null,"postal_code":"13164-","country":"United States","longitude":"-76.329676","latitude":"43.085441","phone":"315468","website_url":"http://www.local315brewing.com","updated_at":"2023-02-21T01:41:59.300Z","created_at":"2023-02-21T01:41:59.300Z"},{"id":"lock-32-brewing-company-pittsford","name":"Lock 32 Brewing Company","brewery_type":"micro","street":"10 Schoen Pl","address_2":null,"address_3":null,"city":"Pittsford","state":"New York","county_province":null,"postal_code":"14534-2026","country":"United States","longitude":"-77.514256","latitude":"43.09306","phone":"5855067738","website_url":"http://www.lock32brew.com","updated_at":"2023-02-21T01:41:59.300Z","created_at":"2023-02-21T01:41:59.300Z"},{"id":"long-ireland-brewing-co-riverhead","name":"Long Ireland Brewing Co","brewery_type":"micro","street":"817 Pulaski St","address_2":null,"address_3":null,"city":"Riverhead","state":"New York","county_province":null,"postal_code":"11901-3039","country":"United States","longitude":"-72.67411924","latitude":"40.9199771","phone":"6314034303","website_url":null,"updated_at":"2023-02-21T01:41:59.300Z","created_at":"2023-02-21T01:41:59.300Z"},{"id":"long-lot-farm-brewery-chester","name":"Long Lot Farm Brewery","brewery_type":"micro","street":"153 Johnson Rd","address_2":null,"address_3":null,"city":"Chester","state":"New York","county_province":null,"postal_code":"10918","country":"United States","longitude":null,"latitude":null,"phone":"8453372940","website_url":"http://www.longlotfarmbrewery.com","updated_at":"2023-02-21T01:41:59.300Z","created_at":"2023-02-21T01:41:59.300Z"},{"id":"lost-kingdom-brewery-firehouse-distillery-ovid","name":"Lost Kingdom Brewery / Firehouse Distillery","brewery_type":"micro","street":"7160 Main St","address_2":null,"address_3":null,"city":"Ovid","state":"New York","county_province":null,"postal_code":"14521-9401","country":"United States","longitude":"-76.82281329","latitude":"42.67724221","phone":"6074034020","website_url":"http://www.firehousedistillery.net","updated_at":"2023-02-21T01:41:59.300Z","created_at":"2023-02-21T01:41:59.300Z"},{"id":"lucky-hare-brewing-company-inc-hector","name":"Lucky Hare Brewing Company, Inc.","brewery_type":"micro","street":"6085 Beckhorn Road","address_2":null,"address_3":null,"city":"Hector","state":"New York","county_province":null,"postal_code":"14841","country":"United States","longitude":null,"latitude":null,"phone":"6075462036","website_url":"http://www.luckyharebrewing.com","updated_at":"2023-02-21T01:41:59.300Z","created_at":"2023-02-21T01:41:59.300Z"},{"id":"lunkenheimer-craft-brewing-co-llc-weedsport","name":"Lunkenheimer Craft Brewing Co. LLC","brewery_type":"micro","street":"PO Box 539 8920 N Seneca St,","address_2":null,"address_3":null,"city":"Weedsport","state":"New York","county_province":null,"postal_code":"13166-0539","country":"United States","longitude":null,"latitude":null,"phone":"3158347027","website_url":"http://www.lunkenheimercraftbrewing.com","updated_at":"2023-02-21T01:41:59.300Z","created_at":"2023-02-21T01:41:59.300Z"},{"id":"lyonsmith-brewing-company-penn-yan","name":"Lyonsmith Brewing Company","brewery_type":"micro","street":"138 Water St","address_2":null,"address_3":null,"city":"Penn Yan","state":"New York","county_province":null,"postal_code":"14527-1651","country":"United States","longitude":"-77.05463635","latitude":"42.65899476","phone":"3155365603","website_url":"http://www.lyonsmithbrewing.com","updated_at":"2023-02-21T01:41:59.300Z","created_at":"2023-02-21T01:41:59.300Z"},{"id":"mad-jack-brewing-co-van-dyck-restaurant-and-lounge-schenectady","name":"Mad Jack Brewing Co / Van Dyck Restaurant & Lounge","brewery_type":"brewpub","street":"237 Union St","address_2":null,"address_3":null,"city":"Schenectady","state":"New York","county_province":null,"postal_code":"12305-1405","country":"United States","longitude":"-73.94466273","latitude":"42.81647276","phone":"5183487999","website_url":"http://www.madjackbrewing.com","updated_at":"2023-02-21T01:41:59.300Z","created_at":"2023-02-21T01:41:59.300Z"},{"id":"market-street-brewing-co-corning","name":"Market Street Brewing Co","brewery_type":"brewpub","street":"63 W Market St # 65","address_2":null,"address_3":null,"city":"Corning","state":"New York","county_province":null,"postal_code":"14830-2526","country":"United States","longitude":"-77.0571571","latitude":"42.143984","phone":"6079362337","website_url":"http://www.936-beer.com","updated_at":"2023-02-21T01:41:59.300Z","created_at":"2023-02-21T01:41:59.300Z"},{"id":"mean-max-brew-works-glens-falls","name":"Mean Max Brew Works","brewery_type":"micro","street":"193 Glen St # 2","address_2":null,"address_3":null,"city":"Glens Falls","state":"New York","county_province":null,"postal_code":"12801-3539","country":"United States","longitude":"-73.64451861","latitude":"43.31016635","phone":"5187932337","website_url":"http://www.meanmaxbrew.com","updated_at":"2023-02-21T01:41:59.300Z","created_at":"2023-02-21T01:41:59.300Z"},{"id":"middle-ages-brewing-co-ltd-syracuse","name":"Middle Ages Brewing Co Ltd","brewery_type":"micro","street":"120 Wilkinson St Ste 3","address_2":null,"address_3":null,"city":"Syracuse","state":"New York","county_province":null,"postal_code":"13204-2490","country":"United States","longitude":null,"latitude":null,"phone":"3154764250","website_url":"http://www.middleagesbrewing.com","updated_at":"2023-02-21T01:41:59.300Z","created_at":"2023-02-21T01:41:59.300Z"},{"id":"midriver-brewery-cold-spring","name":"Midriver Brewery","brewery_type":"planning","street":null,"address_2":null,"address_3":null,"city":"Cold Spring","state":"New York","county_province":null,"postal_code":"10516","country":"United States","longitude":null,"latitude":null,"phone":"9146611790","website_url":null,"updated_at":"2023-02-21T01:41:59.300Z","created_at":"2023-02-21T01:41:59.300Z"},{"id":"mikkeller-brewing-nyc-flushing","name":"Mikkeller Brewing NYC","brewery_type":"brewpub","street":"12001 Roosevelt Ave","address_2":null,"address_3":null,"city":"Flushing","state":"New York","county_province":null,"postal_code":"11368-1653","country":"United States","longitude":null,"latitude":null,"phone":"9175720357","website_url":"http://mikkellernyc.com","updated_at":"2023-02-21T01:41:59.300Z","created_at":"2023-02-21T01:41:59.300Z"},{"id":"miles-craft-ales-miles-wine-cellars-himrod","name":"Miles Craft Ales @ Miles Wine Cellars","brewery_type":"contract","street":"168 Randall Rd","address_2":null,"address_3":null,"city":"Himrod","state":"New York","county_province":null,"postal_code":"14842-9715","country":"United States","longitude":null,"latitude":null,"phone":"6072437742","website_url":"http://www.mileswinecellars.com","updated_at":"2023-02-21T01:41:59.300Z","created_at":"2023-02-21T01:41:59.300Z"},{"id":"mill-house-brewing-company-poughkeepsie","name":"Mill House Brewing Company","brewery_type":"brewpub","street":"289 Mill St","address_2":null,"address_3":null,"city":"Poughkeepsie","state":"New York","county_province":null,"postal_code":"12601-3111","country":"United States","longitude":"-73.926472","latitude":"41.705077","phone":"8452345573","website_url":"http://www.millhousebrewing.com","updated_at":"2023-02-21T01:41:59.300Z","created_at":"2023-02-21T01:41:59.300Z"},{"id":"mill-house-brewing-company-production-poughkeepsie","name":"Mill House Brewing Company - Production","brewery_type":"micro","street":null,"address_2":null,"address_3":null,"city":"Poughkeepsie","state":"New York","county_province":null,"postal_code":"12601","country":"United States","longitude":null,"latitude":null,"phone":"8452345573","website_url":null,"updated_at":"2023-02-21T01:41:59.300Z","created_at":"2023-02-21T01:41:59.300Z"},{"id":"montauk-brewing-co-montauk","name":"Montauk Brewing Co","brewery_type":"micro","street":"62 S Erie Ave","address_2":null,"address_3":null,"city":"Montauk","state":"New York","county_province":null,"postal_code":"11954-5370","country":"United States","longitude":"-71.9440878","latitude":"41.0366959","phone":"6316688471","website_url":"http://www.montaukbrewingco.com","updated_at":"2023-02-21T01:41:59.300Z","created_at":"2023-02-21T01:41:59.300Z"},{"id":"moriches-field-brewing-company-center-moriches","name":"Moriches Field Brewing Company","brewery_type":"planning","street":null,"address_2":null,"address_3":null,"city":"Center Moriches","state":"New York","county_province":null,"postal_code":"11934-2600","country":"United States","longitude":null,"latitude":null,"phone":"6314495310","website_url":null,"updated_at":"2023-02-21T01:41:59.300Z","created_at":"2023-02-21T01:41:59.300Z"},{"id":"moustache-brewing-co-riverhead","name":"Moustache Brewing Co","brewery_type":"micro","street":"400 Hallett Ave Ste A","address_2":null,"address_3":null,"city":"Riverhead","state":"New York","county_province":null,"postal_code":"11901-3076","country":"United States","longitude":null,"latitude":null,"phone":"6315913250","website_url":"http://www.moustachebrewing.com","updated_at":"2023-02-21T01:41:59.300Z","created_at":"2023-02-21T01:41:59.300Z"},{"id":"naked-dove-brewing-company-canandaigua","name":"Naked Dove Brewing Company","brewery_type":"micro","street":"4048 State Route 5 and 20","address_2":null,"address_3":null,"city":"Canandaigua","state":"New York","county_province":null,"postal_code":"14424-9591","country":"United States","longitude":null,"latitude":null,"phone":"5853962537","website_url":"http://www.nakeddovebrewing.com","updated_at":"2023-02-21T01:41:59.300Z","created_at":"2023-02-21T01:41:59.300Z"},{"id":"new-paltz-brewing-company-wawarsing","name":"New Paltz Brewing Company","brewery_type":"micro","street":"7174 Route 209","address_2":null,"address_3":null,"city":"Wawarsing","state":"New York","county_province":null,"postal_code":"12489","country":"United States","longitude":null,"latitude":null,"phone":"8454193040","website_url":"http://www.pfalzerbrau.com","updated_at":"2023-02-21T01:41:59.300Z","created_at":"2023-02-21T01:41:59.300Z"},{"id":"new-york-beer-project-lockport","name":"New York Beer Project","brewery_type":"brewpub","street":"6933 S Transit Rd","address_2":null,"address_3":null,"city":"Lockport","state":"New York","county_province":null,"postal_code":"14094-6330","country":"United States","longitude":"-78.69614336","latitude":"43.0897514","phone":"7167436927","website_url":"http://www.nybeerproject.com","updated_at":"2023-02-21T01:41:59.300Z","created_at":"2023-02-21T01:41:59.300Z"},{"id":"newburgh-brewing-company-newburgh","name":"Newburgh Brewing Company","brewery_type":"micro","street":"88 S Colden St","address_2":null,"address_3":null,"city":"Newburgh","state":"New York","county_province":null,"postal_code":"12550-5640","country":"United States","longitude":"-74.00811699","latitude":"41.49659119","phone":"8455692337","website_url":"http://www.newburghbrewing.com","updated_at":"2023-02-21T01:41:59.300Z","created_at":"2023-02-21T01:41:59.300Z"},{"id":"next-chapter-brewpub-auburn","name":"Next Chapter Brewpub","brewery_type":"planning","street":null,"address_2":null,"address_3":null,"city":"Auburn","state":"New York","county_province":null,"postal_code":"13021-4620","country":"United States","longitude":null,"latitude":null,"phone":null,"website_url":"http://www.nextchapterbrewpub.com","updated_at":"2023-02-21T01:41:59.300Z","created_at":"2023-02-21T01:41:59.300Z"},{"id":"nine-maidens-brewing-company-rochester","name":"Nine Maidens Brewing Company","brewery_type":"micro","street":"1344 University Ave","address_2":"Suite 140","address_3":null,"city":"Rochester","state":"New York","county_province":null,"postal_code":"14607","country":"United States","longitude":"-77.56625665397776","latitude":"43.15104752908014","phone":"5854343030","website_url":"https://ninemaidensbrewing.com","updated_at":"2023-02-21T01:41:59.300Z","created_at":"2023-02-21T01:41:59.300Z"},{"id":"noble-shepherd-craft-brewery-bloomfield","name":"Noble Shepherd Craft Brewery","brewery_type":"micro","street":"7853 State Route 20a","address_2":null,"address_3":null,"city":"Bloomfield","state":"New York","county_province":null,"postal_code":"14469-9659","country":"United States","longitude":null,"latitude":null,"phone":"5852297661","website_url":"http://www.nobleshepherdbrewery.com","updated_at":"2023-02-21T01:41:59.300Z","created_at":"2023-02-21T01:41:59.300Z"},{"id":"north-american-breweries-rochester","name":"North American Breweries","brewery_type":"regional","street":"445 Saint Paul St","address_2":null,"address_3":null,"city":"Rochester","state":"New York","county_province":null,"postal_code":"14605-1726","country":"United States","longitude":"-77.6143245","latitude":"43.16481717","phone":"5855461030","website_url":null,"updated_at":"2023-02-21T01:41:59.300Z","created_at":"2023-02-21T01:41:59.300Z"},{"id":"north-brewery-endicott","name":"North Brewery","brewery_type":"micro","street":"110 Washington Ave","address_2":null,"address_3":null,"city":"Endicott","state":"New York","county_province":null,"postal_code":"13760-5307","country":"United States","longitude":"-76.04827802","latitude":"42.102192","phone":"6077850524","website_url":"http://www.northbrewery.com","updated_at":"2023-02-21T01:41:59.300Z","created_at":"2023-02-21T01:41:59.300Z"},{"id":"north-fork-brewing-company-riverhead","name":"North Fork Brewing Company","brewery_type":"planning","street":null,"address_2":null,"address_3":null,"city":"Riverhead","state":"New York","county_province":null,"postal_code":"11901-4615","country":"United States","longitude":null,"latitude":null,"phone":null,"website_url":null,"updated_at":"2023-02-21T01:41:59.300Z","created_at":"2023-02-21T01:41:59.300Z"},{"id":"north-river-hops-and-brewing-wappingers-falls","name":"North River Hops And Brewing","brewery_type":"micro","street":"1571 Route 9","address_2":null,"address_3":null,"city":"Wappingers Falls","state":"New York","county_province":null,"postal_code":"12590-2827","country":"United States","longitude":null,"latitude":null,"phone":"8452972190","website_url":"http://www.northriverbrews.com","updated_at":"2023-02-21T01:41:59.300Z","created_at":"2023-02-21T01:41:59.300Z"},{"id":"northern-harvest-brewing-company-moriah","name":"Northern Harvest Brewing Company","brewery_type":"planning","street":null,"address_2":null,"address_3":null,"city":"Moriah","state":"New York","county_province":null,"postal_code":"12960-2306","country":"United States","longitude":null,"latitude":null,"phone":"5184682337","website_url":"http://www.northernharvest.beer","updated_at":"2023-02-21T01:41:59.300Z","created_at":"2023-02-21T01:41:59.300Z"},{"id":"old-klaverack-brewery-hudson","name":"Old Klaverack Brewery","brewery_type":"micro","street":"150 Thielman Rd","address_2":null,"address_3":null,"city":"Hudson","state":"New York","county_province":null,"postal_code":"12534-3716","country":"United States","longitude":null,"latitude":null,"phone":"5189651437","website_url":"http://www.oldklaverackbrewery.com","updated_at":"2023-02-21T01:41:59.300Z","created_at":"2023-02-21T01:41:59.300Z"},{"id":"other-half-brewing-company-brooklyn","name":"Other Half Brewing Company","brewery_type":"micro","street":"195 Centre St","address_2":null,"address_3":null,"city":"Brooklyn","state":"New York","county_province":null,"postal_code":"11231-3907","country":"United States","longitude":"-73.9991264","latitude":"40.6737903","phone":null,"website_url":null,"updated_at":"2023-02-21T01:41:59.300Z","created_at":"2023-02-21T01:41:59.300Z"},{"id":"oval-craft-brewing-plattsburgh","name":"OVAL Craft Brewing","brewery_type":"micro","street":"111 Ohio Rd","address_2":null,"address_3":null,"city":"Plattsburgh","state":"New York","county_province":null,"postal_code":"12903-4403","country":"United States","longitude":null,"latitude":null,"phone":"5183242739","website_url":"http://www.ovalcraftbrewing.com","updated_at":"2023-02-21T01:41:59.300Z","created_at":"2023-02-21T01:41:59.300Z"},{"id":"owls-rest-brewery-malone","name":"Owls Rest Brewery","brewery_type":"planning","street":null,"address_2":null,"address_3":null,"city":"Malone","state":"New York","county_province":null,"postal_code":"12953-1517","country":"United States","longitude":null,"latitude":null,"phone":null,"website_url":null,"updated_at":"2023-02-21T01:41:59.300Z","created_at":"2023-02-21T01:41:59.300Z"},{"id":"oyster-bay-brewing-oyster-bay","name":"Oyster Bay Brewing","brewery_type":"micro","street":"36 Audrey Ave","address_2":null,"address_3":null,"city":"Oyster Bay","state":"New York","county_province":null,"postal_code":"11771-1548","country":"United States","longitude":"-73.53140323","latitude":"40.87304967","phone":"5168025546","website_url":"http://www.oysterbaybrewing.com","updated_at":"2023-02-21T01:41:59.300Z","created_at":"2023-02-21T01:41:59.300Z"},{"id":"pantomime-mixtures-hector","name":"Pantomime Mixtures","brewery_type":"planning","street":null,"address_2":null,"address_3":null,"city":"Hector","state":"New York","county_province":null,"postal_code":"14841-9629","country":"United States","longitude":null,"latitude":null,"phone":"6319442668","website_url":"http://www.pantomimemxitures.com","updated_at":"2023-02-21T01:41:59.300Z","created_at":"2023-02-21T01:41:59.300Z"},{"id":"paradox-brewery-gateway-to-the-adirondacks-schroon-lake","name":"Paradox Brewery / Gateway To the Adirondacks","brewery_type":"planning","street":null,"address_2":null,"address_3":null,"city":"Schroon Lake","state":"New York","county_province":null,"postal_code":"12870","country":"United States","longitude":null,"latitude":null,"phone":null,"website_url":null,"updated_at":"2023-02-21T01:41:59.300Z","created_at":"2023-02-21T01:41:59.300Z"},{"id":"paradox-brewery-schroon-lake","name":"Paradox Brewery","brewery_type":"micro","street":"154 State Route 9","address_2":null,"address_3":null,"city":"Schroon Lake","state":"New York","county_province":null,"postal_code":"12870","country":"United States","longitude":null,"latitude":null,"phone":"5183515036","website_url":"http://www.paradoxbrewery.com","updated_at":"2023-02-21T01:41:59.300Z","created_at":"2023-02-21T01:41:59.300Z"},{"id":"peacemaker-brewing-company-canandaigua","name":"Peacemaker Brewing Company","brewery_type":"micro","street":"20 Pleasant St","address_2":null,"address_3":null,"city":"Canandaigua","state":"New York","county_province":null,"postal_code":"14424-2047","country":"United States","longitude":"-77.27866055","latitude":"42.88851165","phone":"5853963561","website_url":"http://www.peacemakerbrewing.com","updated_at":"2023-02-21T01:41:59.300Z","created_at":"2023-02-21T01:41:59.300Z"},{"id":"pearl-street-grill-and-brewery-buffalo","name":"Pearl Street Grill and Brewery","brewery_type":"brewpub","street":"76 Pearl St","address_2":null,"address_3":null,"city":"Buffalo","state":"New York","county_province":null,"postal_code":"14202-4106","country":"United States","longitude":"-78.87722544","latitude":"42.88105759","phone":"7168562337","website_url":"http://www.pearlstreetgrill.com","updated_at":"2023-02-21T01:41:59.300Z","created_at":"2023-02-21T01:41:59.300Z"},{"id":"peekskill-brewing-co-peekskill","name":"Peekskill Brewing Co","brewery_type":"brewpub","street":"47 S Water St # 53","address_2":null,"address_3":null,"city":"Peekskill","state":"New York","county_province":null,"postal_code":"10566-2035","country":"United States","longitude":"-73.9292934","latitude":"41.2867311","phone":"9147342337","website_url":"http://www.peekskillbrewery.com","updated_at":"2023-02-21T01:41:59.300Z","created_at":"2023-02-21T01:41:59.300Z"},{"id":"perfect-world-brewing-co-albany","name":"Perfect World Brewing Co","brewery_type":"micro","street":"1276 Broadway","address_2":null,"address_3":null,"city":"Albany","state":"New York","county_province":null,"postal_code":"12204-2623","country":"United States","longitude":null,"latitude":null,"phone":null,"website_url":"http://www.facebook.com/PerfectWorldBrewing/","updated_at":"2023-02-21T01:41:59.300Z","created_at":"2023-02-21T01:41:59.300Z"},{"id":"pine-island-brewing-pine-island","name":"Pine Island Brewing","brewery_type":"micro","street":"682 County Route 1 Ste B","address_2":null,"address_3":null,"city":"Pine Island","state":"New York","county_province":null,"postal_code":"10969-1715","country":"United States","longitude":null,"latitude":null,"phone":"8452882646","website_url":"http://www.pineislandbeer.com","updated_at":"2023-02-21T01:41:59.300Z","created_at":"2023-02-21T01:41:59.300Z"},{"id":"plan-bee-farm-brewery-poughkeepsie","name":"Plan Bee Farm Brewery","brewery_type":"micro","street":"115 Underhill Rd","address_2":null,"address_3":null,"city":"Poughkeepsie","state":"New York","county_province":null,"postal_code":"12603-1045","country":"United States","longitude":"-73.88591274","latitude":"41.71721405","phone":"7653078589","website_url":"http://www.planbeefarmbrewery.com","updated_at":"2023-02-21T01:41:59.300Z","created_at":"2023-02-21T01:41:59.300Z"},{"id":"plattsburgh-brewing-co-plattsburgh","name":"Plattsburgh Brewing Co","brewery_type":"brewpub","street":"411 Route 3","address_2":null,"address_3":null,"city":"Plattsburgh","state":"New York","county_province":null,"postal_code":"12901-6520","country":"United States","longitude":null,"latitude":null,"phone":"5183246680","website_url":"http://www.plattsburghbrewingco.com","updated_at":"2023-02-21T01:41:59.300Z","created_at":"2023-02-21T01:41:59.300Z"},{"id":"poboy-brewing-port-jefferson-station","name":"Po'Boy Brewing","brewery_type":"micro","street":"200 Wilson St Unit E3","address_2":null,"address_3":null,"city":"Port Jefferson Station","state":"New York","county_province":null,"postal_code":"11776-1145","country":"United States","longitude":null,"latitude":null,"phone":"6318281131","website_url":"http://www.poboybrewery.com","updated_at":"2023-02-21T01:41:59.300Z","created_at":"2023-02-21T01:41:59.300Z"},{"id":"port-jeff-brewing-co-port-jefferson","name":"Port Jeff Brewing Co","brewery_type":"micro","street":"22 Mill Creek Rd","address_2":null,"address_3":null,"city":"Port Jefferson","state":"New York","county_province":null,"postal_code":"11777-1663","country":"United States","longitude":"-73.06772855","latitude":"40.94140421","phone":"8774752739","website_url":"http://www.portjeffbrewing.com","updated_at":"2023-02-21T01:41:59.300Z","created_at":"2023-02-21T01:41:59.300Z"},{"id":"pressure-drop-brewing-buffalo","name":"Pressure Drop Brewing","brewery_type":"micro","street":"65 Vandalia St","address_2":null,"address_3":null,"city":"Buffalo","state":"New York","county_province":null,"postal_code":"14204-2739","country":"United States","longitude":"-78.86103739","latitude":"42.86640421","phone":"7168489942","website_url":"http://www.barrelfactory.com","updated_at":"2023-02-21T01:41:59.300Z","created_at":"2023-02-21T01:41:59.300Z"},{"id":"prison-city-brewing-auburn","name":"Prison City Brewing","brewery_type":"brewpub","street":"28 State St","address_2":null,"address_3":null,"city":"Auburn","state":"New York","county_province":null,"postal_code":"13021-3625","country":"United States","longitude":"-76.5682427","latitude":"42.9317672","phone":"9177272477","website_url":"http://www.prisoncitybrewing.com","updated_at":"2023-02-21T01:41:59.300Z","created_at":"2023-02-21T01:41:59.300Z"},{"id":"pull-brewing-co-new-paltz","name":"Pull Brewing Co","brewery_type":"contract","street":"317 Springtown Rd","address_2":null,"address_3":null,"city":"New Paltz","state":"New York","county_province":null,"postal_code":"12561-3020","country":"United States","longitude":"-74.097562","latitude":"41.760486","phone":null,"website_url":"http://www.pullbrewing.com","updated_at":"2023-02-21T01:41:59.300Z","created_at":"2023-02-21T01:41:59.300Z"},{"id":"queens-brewery-ridgewood","name":"Queens Brewery","brewery_type":"proprietor","street":"1539 Covert St","address_2":null,"address_3":null,"city":"Ridgewood","state":"New York","county_province":null,"postal_code":"11385-5356","country":"United States","longitude":"-73.90428508","latitude":"40.6949116","phone":"6462652049","website_url":"http://www.queensbrewery.com","updated_at":"2023-02-21T01:41:59.300Z","created_at":"2023-02-21T01:41:59.300Z"},{"id":"racing-city-brewing-company-saratoga-springs","name":"Racing City Brewing Company","brewery_type":"micro","street":"250 Excelsior Ave","address_2":null,"address_3":null,"city":"Saratoga Springs","state":"New York","county_province":null,"postal_code":"12866-8532","country":"United States","longitude":"-73.7769944","latitude":"43.0888891","phone":"5183504515","website_url":"http://www.racingcitybrewingcompany.com","updated_at":"2023-02-21T01:41:59.300Z","created_at":"2023-02-21T01:41:59.300Z"},{"id":"radiant-pig-craft-beers-new-york","name":"Radiant Pig Craft Beers","brewery_type":"contract","street":"122 W 27th St Fl 10","address_2":null,"address_3":null,"city":"New York","state":"New York","county_province":null,"postal_code":"10001-6227","country":"United States","longitude":null,"latitude":null,"phone":null,"website_url":null,"updated_at":"2023-02-21T01:41:59.300Z","created_at":"2023-02-21T01:41:59.300Z"},{"id":"railhead-brewing-company-hornell","name":"Railhead Brewing Company","brewery_type":"brewpub","street":"40 Park Dr","address_2":null,"address_3":null,"city":"Hornell","state":"New York","county_province":null,"postal_code":"14843-2213","country":"United States","longitude":null,"latitude":null,"phone":"6073243286","website_url":"http://www.railheadbrewing.com","updated_at":"2023-02-21T01:41:59.300Z","created_at":"2023-02-21T01:41:59.300Z"},{"id":"randolph-beer-dumbo-brooklyn","name":"Randolph Beer Dumbo","brewery_type":"brewpub","street":"77 Sands St","address_2":null,"address_3":null,"city":"Brooklyn","state":"New York","county_province":null,"postal_code":"11201-1431","country":"United States","longitude":"-73.987503","latitude":"40.70005509","phone":"7182983331","website_url":"http://www.randolphbeer.com","updated_at":"2023-02-21T01:41:59.300Z","created_at":"2023-02-21T01:41:59.300Z"},{"id":"raquette-river-brewing-tupper-lake","name":"Raquette River Brewing","brewery_type":"micro","street":"11 Balsam St # 2","address_2":null,"address_3":null,"city":"Tupper Lake","state":"New York","county_province":null,"postal_code":"12986-1033","country":"United States","longitude":"-74.48652145","latitude":"44.24347376","phone":"5183595219","website_url":"http://www.raquetteriverbrewing.com","updated_at":"2023-02-21T01:41:59.300Z","created_at":"2023-02-21T01:41:59.300Z"},{"id":"rare-form-brewing-troy","name":"Rare Form Brewing","brewery_type":"micro","street":"90 Congress St","address_2":null,"address_3":null,"city":"Troy","state":"New York","county_province":null,"postal_code":"12180-4123","country":"United States","longitude":"-73.6899808","latitude":"42.7286018","phone":"5183264303","website_url":"http://www.rareformbrewing.com","updated_at":"2023-02-21T01:41:59.300Z","created_at":"2023-02-21T01:41:59.300Z"},{"id":"real-mccoy-beer-co-delmar","name":"Real McCoy Beer Co.","brewery_type":"micro","street":"20 Hallwood Rd Unit C","address_2":null,"address_3":null,"city":"Delmar","state":"New York","county_province":null,"postal_code":"12054-1925","country":"United States","longitude":null,"latitude":null,"phone":"5186989082","website_url":"http://www.therealmccoybeerco.com","updated_at":"2023-02-21T01:41:59.300Z","created_at":"2023-02-21T01:41:59.300Z"},{"id":"red-hawk-brewing-syracuse","name":"Red Hawk Brewing","brewery_type":"micro","street":"4504 Bussey Rd","address_2":null,"address_3":null,"city":"Syracuse","state":"New York","county_province":null,"postal_code":"13215-8783","country":"United States","longitude":null,"latitude":null,"phone":"3154915158","website_url":"http://www.redhawkbrewing.com","updated_at":"2023-02-21T01:41:59.300Z","created_at":"2023-02-21T01:41:59.300Z"},{"id":"red-shed-brewing-company-cherry-valley","name":"Red Shed Brewing Company","brewery_type":"micro","street":"817 Butter Bowl Rd","address_2":null,"address_3":null,"city":"Cherry Valley","state":"New York","county_province":null,"postal_code":"13320-3106","country":"United States","longitude":null,"latitude":null,"phone":"6077316454","website_url":"http://www.redshedbrewing.com","updated_at":"2023-02-21T01:41:59.300Z","created_at":"2023-02-21T01:41:59.300Z"},{"id":"reinvention-brewing-co-manchester","name":"Reinvention Brewing Co.","brewery_type":"micro","street":"9 N Main St PO Box 57","address_2":null,"address_3":null,"city":"Manchester","state":"New York","county_province":null,"postal_code":"14504-9713","country":"United States","longitude":null,"latitude":null,"phone":"5852897309","website_url":"http://www.reinventionbrewing.com","updated_at":"2023-02-21T01:41:59.300Z","created_at":"2023-02-21T01:41:59.300Z"},{"id":"resurgence-brewing-company-buffalo","name":"Resurgence Brewing Company","brewery_type":"brewpub","street":"1250 Niagara St","address_2":null,"address_3":null,"city":"Buffalo","state":"New York","county_province":null,"postal_code":"14213-1502","country":"United States","longitude":"-78.89959956","latitude":"42.91822725","phone":"7163819868","website_url":"http://www.resurgencebrewing.com","updated_at":"2023-02-21T01:41:59.300Z","created_at":"2023-02-21T01:41:59.300Z"},{"id":"rg-brewery-five-sons-winery-brockport","name":"RG Brewery / Five Sons Winery","brewery_type":"micro","street":"1360 W Sweden Rd","address_2":null,"address_3":null,"city":"Brockport","state":"New York","county_province":null,"postal_code":"14420-","country":"United States","longitude":null,"latitude":null,"phone":"5853913569","website_url":"http://www.rgbrewery.com","updated_at":"2023-02-21T01:41:59.300Z","created_at":"2023-02-21T01:41:59.300Z"},{"id":"rip-van-winkle-brewing-co-catskill","name":"Rip Van Winkle Brewing Co.","brewery_type":"brewpub","street":"4545 Route 32","address_2":null,"address_3":null,"city":"Catskill","state":"New York","county_province":null,"postal_code":"12414-6623","country":"United States","longitude":null,"latitude":null,"phone":"5186789275","website_url":"http://www.ripvanwinklebrewingco.com","updated_at":"2023-02-21T01:41:59.300Z","created_at":"2023-02-21T01:41:59.300Z"},{"id":"roc-brewing-co-rochester","name":"Roc Brewing Co","brewery_type":"brewpub","street":"56 S Union St","address_2":null,"address_3":null,"city":"Rochester","state":"New York","county_province":null,"postal_code":"14607-1839","country":"United States","longitude":"-77.59793317","latitude":"43.15337067","phone":"5857949798","website_url":"http://www.rocbrewingco.com","updated_at":"2023-02-21T01:41:59.300Z","created_at":"2023-02-21T01:41:59.300Z"},{"id":"rockaway-brewing-company-arverne","name":"Rockaway Brewing Company","brewery_type":"planning","street":null,"address_2":null,"address_3":null,"city":"Arverne","state":"New York","county_province":null,"postal_code":"11692-1044","country":"United States","longitude":null,"latitude":null,"phone":"7184826528","website_url":"http://www.rockawaybrewco.com","updated_at":"2023-02-21T01:41:59.300Z","created_at":"2023-02-21T01:41:59.300Z"},{"id":"rockaway-brewing-company-long-island-city","name":"Rockaway Brewing Company","brewery_type":"micro","street":"4601 5th St","address_2":null,"address_3":null,"city":"Long Island City","state":"New York","county_province":null,"postal_code":"11101-5369","country":"United States","longitude":"-73.9573397","latitude":"40.7404088","phone":"7184826528","website_url":"http://www.rockawaybrewco.com","updated_at":"2023-02-21T01:41:59.300Z","created_at":"2023-02-21T01:41:59.300Z"},{"id":"rocky-point-artisan-ales-rocky-point","name":"Rocky Point Artisan Ales","brewery_type":"micro","street":null,"address_2":null,"address_3":null,"city":"Rocky Point","state":"New York","county_province":null,"postal_code":"11778","country":"United States","longitude":null,"latitude":null,"phone":"6318482261","website_url":"http://www.rockypointartisanbeer.com","updated_at":"2023-02-21T01:41:59.300Z","created_at":"2023-02-21T01:41:59.300Z"},{"id":"rogers-beer-penfield","name":"Rogers Beer","brewery_type":"contract","street":"23 Woodline Dr","address_2":null,"address_3":null,"city":"Penfield","state":"New York","county_province":null,"postal_code":"14526-2413","country":"United States","longitude":"-77.46723818","latitude":"43.12868768","phone":"5852980483","website_url":"http://www.rogersbeer.com","updated_at":"2023-02-21T01:41:59.300Z","created_at":"2023-02-21T01:41:59.300Z"},{"id":"rohrbach-brewing-company-rochester","name":"Rohrbach Brewing Company","brewery_type":"brewpub","street":"97 Railroad St","address_2":null,"address_3":null,"city":"Rochester","state":"New York","county_province":null,"postal_code":"14609-6039","country":"United States","longitude":"-77.586694","latitude":"43.163275","phone":"5855468020","website_url":"http://www.rohrbachs.com","updated_at":"2023-02-21T01:41:59.300Z","created_at":"2023-02-21T01:41:59.300Z"},{"id":"rohrbachs-railroad-st-brewery-rochester","name":"Rohrbach's Railroad St Brewery","brewery_type":"micro","street":"97 Railroad St","address_2":null,"address_3":null,"city":"Rochester","state":"New York","county_province":null,"postal_code":"14609-6039","country":"United States","longitude":"-77.586694","latitude":"43.163275","phone":"5855468020","website_url":"http://www.rohrbachs.com","updated_at":"2023-02-21T01:41:59.300Z","created_at":"2023-02-21T01:41:59.300Z"},{"id":"roosterfish-brewing-co-watkins-glen","name":"Roosterfish Brewing Co.","brewery_type":"brewpub","street":"301 N Franklin St","address_2":null,"address_3":null,"city":"Watkins Glen","state":"New York","county_province":null,"postal_code":"14891-1202","country":"United States","longitude":"-76.87362","latitude":"42.38063","phone":"6075359797","website_url":"http://www.roosterfishbrewing.com","updated_at":"2023-02-21T01:41:59.300Z","created_at":"2023-02-21T01:41:59.300Z"},{"id":"roots-brewing-company-oneonta","name":"Roots Brewing Company","brewery_type":"brewpub","street":"175 Main St","address_2":null,"address_3":null,"city":"Oneonta","state":"New York","county_province":null,"postal_code":"13820-2501","country":"United States","longitude":"-75.0630461","latitude":"42.45318","phone":"6074332925","website_url":"http://www.rootsbrewingcompany.com","updated_at":"2023-02-21T01:41:59.300Z","created_at":"2023-02-21T01:41:59.300Z"},{"id":"roscoe-brewing-company-roscoe","name":"Roscoe Brewing Company","brewery_type":"micro","street":"145 Rockland Rd","address_2":null,"address_3":null,"city":"Roscoe","state":"New York","county_province":null,"postal_code":"12776-6418","country":"United States","longitude":null,"latitude":null,"phone":"6072905002","website_url":"http://www.roscoebeercompany.com","updated_at":"2023-02-21T01:41:59.300Z","created_at":"2023-02-21T01:41:59.300Z"},{"id":"route-6-tap-house-putnam-brewery-mahopac","name":"Route 6 Tap House/ Putnam Brewery","brewery_type":"brewpub","street":"728 US-6","address_2":null,"address_3":null,"city":"Mahopac","state":"New York","county_province":null,"postal_code":"10541","country":"United States","longitude":"-73.72642406","latitude":"41.37750571","phone":"8456287302","website_url":"http://www.facebook.com/Putnam-Brewery-165364887155377/","updated_at":"2023-02-21T01:41:59.300Z","created_at":"2023-02-21T01:41:59.300Z"},{"id":"rs-taylor-and-sons-brewery-salem","name":"R.S. Taylor & Sons Brewery","brewery_type":"brewpub","street":"3602 County Route 30","address_2":null,"address_3":null,"city":"Salem","state":"New York","county_province":null,"postal_code":"12865-4702","country":"United States","longitude":"-73.360912","latitude":"43.175335","phone":"5182090474","website_url":"http://www.rstaylorbrewing.com","updated_at":"2023-02-21T01:41:59.300Z","created_at":"2023-02-21T01:41:59.300Z"},{"id":"ruckus-brewing-co-new-york","name":"Ruckus Brewing Co","brewery_type":"contract","street":"261 W 35th St Ste 1002","address_2":null,"address_3":null,"city":"New York","state":"New York","county_province":null,"postal_code":"10001-1902","country":"United States","longitude":null,"latitude":null,"phone":"6467105098","website_url":"http://www.ruckusbrewing.com","updated_at":"2023-02-21T01:41:59.300Z","created_at":"2023-02-21T01:41:59.300Z"},{"id":"rushing-duck-brewing-co-chester","name":"Rushing Duck Brewing Co","brewery_type":"micro","street":"1 Battiato Ln","address_2":null,"address_3":null,"city":"Chester","state":"New York","county_province":null,"postal_code":"10918-1283","country":"United States","longitude":"-74.270801","latitude":"41.362221","phone":"8456105440","website_url":"http://www.rushingduck.com","updated_at":"2023-02-21T01:41:59.300Z","created_at":"2023-02-21T01:41:59.300Z"},{"id":"rusty-nickel-brewing-co-buffalo","name":"Rusty Nickel Brewing Co.","brewery_type":"brewpub","street":"4350 Seneca St","address_2":null,"address_3":null,"city":"Buffalo","state":"New York","county_province":null,"postal_code":"14224-3169","country":"United States","longitude":"-78.851031","latitude":"42.876243","phone":"7166086155","website_url":"http://www.rustynickelbrewing.com","updated_at":"2023-02-21T01:41:59.300Z","created_at":"2023-02-21T01:41:59.300Z"},{"id":"s-and-s-farm-brewery-nassau","name":"S & S Farm Brewery","brewery_type":"micro","street":"174 Middle Rd","address_2":null,"address_3":null,"city":"Nassau","state":"New York","county_province":null,"postal_code":"12123","country":"United States","longitude":"-73.57263982","latitude":"42.49050535","phone":"5183360766","website_url":"http://www.sandsbrewery.com","updated_at":"2023-02-21T01:41:59.300Z","created_at":"2023-02-21T01:41:59.300Z"},{"id":"sackets-harbor-brewing-co-sackets-harbor","name":"Sackets Harbor Brewing Co","brewery_type":"brewpub","street":"212 W Main St","address_2":null,"address_3":null,"city":"Sackets Harbor","state":"New York","county_province":null,"postal_code":"13685-3183","country":"United States","longitude":"-76.12164821","latitude":"43.94796085","phone":"3156462739","website_url":"http://www.sacketsharborbrewpub.com","updated_at":"2023-02-21T01:41:59.300Z","created_at":"2023-02-21T01:41:59.300Z"},{"id":"sager-beer-works-rochester","name":"Sager Beer Works","brewery_type":"planning","street":null,"address_2":null,"address_3":null,"city":"Rochester","state":"New York","county_province":null,"postal_code":"14607-1669","country":"United States","longitude":null,"latitude":null,"phone":"5857520613","website_url":"http://www.sagerbeerworks.com","updated_at":"2023-02-21T01:41:59.300Z","created_at":"2023-02-21T01:41:59.300Z"},{"id":"sahm-brewing-company-syracuse","name":"Sahm Brewing Company","brewery_type":"micro","street":"203 S Salina St","address_2":null,"address_3":null,"city":"Syracuse","state":"New York","county_province":null,"postal_code":"13202","country":"United States","longitude":"-76.15209318","latitude":"43.04945059","phone":"3158777246","website_url":"http://www.facebook.com/SahmBrewCo/","updated_at":"2023-02-21T01:41:59.300Z","created_at":"2023-02-21T01:41:59.300Z"},{"id":"saint-james-brewery-holbrook","name":"Saint James Brewery","brewery_type":"micro","street":"929 Lincoln Ave Ste 11","address_2":null,"address_3":null,"city":"Holbrook","state":"New York","county_province":null,"postal_code":"11741-2256","country":"United States","longitude":null,"latitude":null,"phone":"6217073192","website_url":"http://www.saintjamesbrewery.com","updated_at":"2023-02-21T01:41:59.300Z","created_at":"2023-02-21T01:41:59.300Z"},{"id":"sakebrooklyn-brewing-co-llc-brooklyn","name":"SakeBrooklyn Brewing Co., LLC","brewery_type":"planning","street":null,"address_2":null,"address_3":null,"city":"Brooklyn","state":"New York","county_province":null,"postal_code":"11237-5263","country":"United States","longitude":null,"latitude":null,"phone":"9294007253","website_url":"http://www.sakebrooklyn.com","updated_at":"2023-02-21T01:41:59.300Z","created_at":"2023-02-21T01:41:59.300Z"},{"id":"salt-point-brewing-co-llc-lansing","name":"Salt Point Brewing Co, LLC","brewery_type":"brewpub","street":"2075 East Shore Dr","address_2":null,"address_3":null,"city":"Lansing","state":"New York","county_province":null,"postal_code":"14882","country":"United States","longitude":"-76.50592053","latitude":"42.53689005","phone":"6075330124","website_url":null,"updated_at":"2023-02-21T01:41:59.300Z","created_at":"2023-02-21T01:41:59.300Z"},{"id":"sand-city-brewing-co-northport","name":"Sand City Brewing Co.","brewery_type":"micro","street":"60 Main St","address_2":null,"address_3":null,"city":"Northport","state":"New York","county_province":null,"postal_code":"11768-1722","country":"United States","longitude":"-73.3508587","latitude":"40.8998983","phone":"9177965672","website_url":"http://www.sandcitybeer.com","updated_at":"2023-02-21T01:41:59.300Z","created_at":"2023-02-21T01:41:59.300Z"},{"id":"saranac-brewery-matt-brewing-co-utica","name":"Saranac Brewery / Matt Brewing Co","brewery_type":"regional","street":"811 Edward St","address_2":null,"address_3":null,"city":"Utica","state":"New York","county_province":null,"postal_code":"13502-4001","country":"United States","longitude":"-75.24414622","latitude":"43.10355567","phone":"3156242400","website_url":"http://www.saranac.com","updated_at":"2023-02-21T01:41:59.300Z","created_at":"2023-02-21T01:41:59.300Z"},{"id":"sato-brewpub-buffalo","name":"Sato Brewpub","brewery_type":"brewpub","street":"110 Pearl St","address_2":null,"address_3":null,"city":"Buffalo","state":"New York","county_province":null,"postal_code":"14202-4125","country":"United States","longitude":"-78.87693971","latitude":"42.88186146","phone":"7162481436","website_url":"http://www.satobrewpub.com","updated_at":"2023-02-21T01:41:59.300Z","created_at":"2023-02-21T01:41:59.300Z"},{"id":"scale-house-brewery-and-pub-ithaca","name":"Scale House Brewery & Pub","brewery_type":"brewpub","street":"23 Cinema Dr Ste C","address_2":null,"address_3":null,"city":"Ithaca","state":"New York","county_province":null,"postal_code":"14850-1682","country":"United States","longitude":null,"latitude":null,"phone":"6072570107","website_url":"http://www.scalehousebrewpub.com","updated_at":"2023-02-21T01:41:59.300Z","created_at":"2023-02-21T01:41:59.300Z"},{"id":"scale-house-brewery-hector","name":"Scale House Brewery","brewery_type":"brewpub","street":"5930 State Route 414","address_2":null,"address_3":null,"city":"Hector","state":"New York","county_province":null,"postal_code":"14841-9662","country":"United States","longitude":null,"latitude":null,"phone":"6075462030","website_url":"http://www.scalehousebrews.com","updated_at":"2023-02-21T01:41:59.300Z","created_at":"2023-02-21T01:41:59.300Z"},{"id":"secatogue-brewing-co-west-islip","name":"Secatogue Brewing Co.","brewery_type":"micro","street":"375 Union Blvd","address_2":null,"address_3":null,"city":"West Islip","state":"New York","county_province":null,"postal_code":"11795-3114","country":"United States","longitude":"-73.30289019","latitude":"40.70717835","phone":"6318714270","website_url":"http://www.secatoguebrewing.com","updated_at":"2023-02-21T01:41:59.300Z","created_at":"2023-02-21T01:41:59.300Z"},{"id":"seneca-lake-brewing-company-dundee","name":"Seneca Lake Brewing Company","brewery_type":"micro","street":"5430 NY-14","address_2":null,"address_3":null,"city":"Dundee","state":"New York","county_province":null,"postal_code":"14837-8838","country":"United States","longitude":null,"latitude":null,"phone":"6072168369","website_url":"http://www.senecalakebrewing.com","updated_at":"2023-02-21T01:41:59.300Z","created_at":"2023-02-21T01:41:59.300Z"},{"id":"seneca-lodge-craft-brewing-at-seneca-lodge-watkins-glen","name":"Seneca Lodge Craft Brewing At Seneca Lodge","brewery_type":"brewpub","street":"3600 Walnut Rd","address_2":null,"address_3":null,"city":"Watkins Glen","state":"New York","county_province":null,"postal_code":"14891-0272","country":"United States","longitude":"-76.873392","latitude":"42.369461","phone":"6075352014","website_url":"http://www.senecalodge.com","updated_at":"2023-02-21T01:41:59.300Z","created_at":"2023-02-21T01:41:59.300Z"},{"id":"seneca-street-brew-pub-manlius","name":"Seneca Street Brew Pub","brewery_type":"brewpub","street":"315 E Seneca St Ste 1","address_2":null,"address_3":null,"city":"Manlius","state":"New York","county_province":null,"postal_code":"13104-1860","country":"United States","longitude":null,"latitude":null,"phone":"3156826968","website_url":"http://www.senecastreetbrewpub.com","updated_at":"2023-02-21T01:41:59.300Z","created_at":"2023-02-21T01:41:59.300Z"},{"id":"serious-brewing-co-howes-cave","name":"Serious Brewing Co.","brewery_type":"micro","street":"116 Caverns Rd","address_2":null,"address_3":null,"city":"Howes Cave","state":"New York","county_province":null,"postal_code":"12092","country":"United States","longitude":null,"latitude":null,"phone":"5188264050","website_url":null,"updated_at":"2023-02-21T01:41:59.300Z","created_at":"2023-02-21T01:41:59.300Z"},{"id":"sevens-brew-pub-farmington","name":"Sevens Brew Pub","brewery_type":"brewpub","street":"5857 Route 96","address_2":null,"address_3":null,"city":"Farmington","state":"New York","county_province":null,"postal_code":"14425","country":"United States","longitude":null,"latitude":null,"phone":"5959243232","website_url":"http://www.fingerlakesgaming.com","updated_at":"2023-02-21T01:41:59.300Z","created_at":"2023-02-21T01:41:59.300Z"},{"id":"shelter-island-craft-brewery-shelter-island","name":"Shelter Island Craft Brewery","brewery_type":"brewpub","street":"55 N Ferry Rd","address_2":null,"address_3":null,"city":"Shelter Island","state":"New York","county_province":null,"postal_code":"11964","country":"United States","longitude":"-72.33987616","latitude":"41.0714822","phone":"6317495977","website_url":"http://www.home.shelterislandcraftbrewery.com","updated_at":"2023-02-21T01:41:59.300Z","created_at":"2023-02-21T01:41:59.300Z"},{"id":"shmaltz-brewing-co-clifton-park","name":"Shmaltz Brewing Co","brewery_type":"micro","street":"6 Fairchild Sq # 1","address_2":null,"address_3":null,"city":"Clifton Park","state":"New York","county_province":null,"postal_code":"12065-1254","country":"United States","longitude":null,"latitude":null,"phone":"5184065430","website_url":"http://www.shmaltzbrewing.com","updated_at":"2023-02-21T01:41:59.300Z","created_at":"2023-02-21T01:41:59.300Z"},{"id":"shrewd-fox-brewery-eldred","name":"Shrewd Fox Brewery","brewery_type":"micro","street":"552 NY State Highway 55","address_2":null,"address_3":null,"city":"Eldred","state":"New York","county_province":null,"postal_code":"12732","country":"United States","longitude":null,"latitude":null,"phone":"8455578255","website_url":"http://www.shrewdfoxbrewery.com","updated_at":"2023-02-21T01:41:59.300Z","created_at":"2023-02-21T01:41:59.300Z"},{"id":"silver-lake-brewing-project-perry","name":"Silver Lake Brewing Project","brewery_type":"micro","street":"14 Borden Ave","address_2":null,"address_3":null,"city":"Perry","state":"New York","county_province":null,"postal_code":"14530","country":"United States","longitude":"-78.00159923","latitude":"42.71795128","phone":"5859694238","website_url":"http://silverlakebrewingproject.com","updated_at":"2023-02-21T01:41:59.300Z","created_at":"2023-02-21T01:41:59.300Z"},{"id":"sing-sing-kill-brewery-ossining","name":"Sing Sing Kill Brewery","brewery_type":"micro","street":"75 Spring St","address_2":null,"address_3":null,"city":"Ossining","state":"New York","county_province":null,"postal_code":"10562-4706","country":"United States","longitude":"-73.86373076","latitude":"41.15860835","phone":"9178812490","website_url":"http://www.singsingkillbrewery.com","updated_at":"2023-02-21T01:41:59.300Z","created_at":"2023-02-21T01:41:59.300Z"},{"id":"singlecut-beersmiths-astoria","name":"Singlecut Beersmiths","brewery_type":"micro","street":"19-33 37th St","address_2":null,"address_3":null,"city":"Astoria","state":"New York","county_province":null,"postal_code":"11105-1118","country":"United States","longitude":null,"latitude":null,"phone":"7186060788","website_url":"http://www.singlecutbeer.com","updated_at":"2023-02-21T01:41:59.300Z","created_at":"2023-02-21T01:41:59.300Z"},{"id":"six-harbors-brewing-company-huntington","name":"Six Harbors Brewing Company","brewery_type":"proprietor","street":"243 New York Ave.","address_2":null,"address_3":null,"city":"Huntington","state":"New York","county_province":null,"postal_code":"11743-2719","country":"United States","longitude":"-73.4253168","latitude":"40.8749628","phone":"5166803528","website_url":null,"updated_at":"2023-02-21T01:41:59.300Z","created_at":"2023-02-21T01:41:59.300Z"},{"id":"sixpoint-brewery-brooklyn","name":"Sixpoint Brewery","brewery_type":"regional","street":"40 Van Dyke St","address_2":null,"address_3":null,"city":"Brooklyn","state":"New York","county_province":null,"postal_code":"11231-1529","country":"United States","longitude":"-74.01191761","latitude":"40.67397255","phone":"3472278676","website_url":"http://www.sixpoint.com","updated_at":"2023-02-21T01:41:59.300Z","created_at":"2023-02-21T01:41:59.300Z"},{"id":"skewed-brewing-watertown","name":"Skewed Brewing","brewery_type":"brewpub","street":"21182 Salmon Run Mall Loop W, Unit B219","address_2":null,"address_3":null,"city":"Watertown","state":"New York","county_province":null,"postal_code":"13601-2244","country":"United States","longitude":null,"latitude":null,"phone":"3157882337","website_url":"http://Skewedbrewing.com","updated_at":"2023-02-21T01:41:59.300Z","created_at":"2023-02-21T01:41:59.300Z"},{"id":"slickfin-brewing-company-llc-queensbury","name":"SlickFin Brewing Company LLC","brewery_type":"planning","street":null,"address_2":null,"address_3":null,"city":"Queensbury","state":"New York","county_province":null,"postal_code":"12804-9786","country":"United States","longitude":null,"latitude":null,"phone":null,"website_url":null,"updated_at":"2023-02-21T01:41:59.300Z","created_at":"2023-02-21T01:41:59.300Z"},{"id":"sloop-brewing-elizaville","name":"Sloop Brewing","brewery_type":"micro","street":"1065 County Route 19","address_2":null,"address_3":null,"city":"Elizaville","state":"New York","county_province":null,"postal_code":"12523-1205","country":"United States","longitude":"-73.797148","latitude":"42.084393","phone":"9178483865","website_url":"http://www.sloopbrewing.com","updated_at":"2023-02-21T01:41:59.300Z","created_at":"2023-02-21T01:41:59.300Z"},{"id":"small-craft-brewing-co-amityville","name":"Small Craft Brewing Co","brewery_type":"micro","street":"66 Merrick Rd","address_2":null,"address_3":null,"city":"Amityville","state":"New York","county_province":null,"postal_code":"11701-3463","country":"United States","longitude":"-73.42019","latitude":"40.67158556","phone":"6314640186","website_url":"http://www.smallcraftbrewing.com","updated_at":"2023-02-21T01:41:59.300Z","created_at":"2023-02-21T01:41:59.300Z"},{"id":"smart-beer-company-new-paltz","name":"Smart Beer Company","brewery_type":"contract","street":null,"address_2":null,"address_3":null,"city":"New Paltz","state":"New York","county_province":null,"postal_code":"12561-0430","country":"United States","longitude":null,"latitude":null,"phone":null,"website_url":"http://www.smartbeercompany.com","updated_at":"2023-02-21T01:41:59.300Z","created_at":"2023-02-21T01:41:59.300Z"},{"id":"southampton-publick-house-southampton","name":"Southampton Publick House","brewery_type":"brewpub","street":"62 Jobs Ln","address_2":null,"address_3":null,"city":"Southampton","state":"New York","county_province":null,"postal_code":"11968-4807","country":"United States","longitude":null,"latitude":null,"phone":"6312832800","website_url":"http://www.publick.com","updated_at":"2023-02-21T01:41:59.300Z","created_at":"2023-02-21T01:41:59.300Z"},{"id":"southern-tier-brewing-co-lakewood","name":"Southern Tier Brewing Co","brewery_type":"regional","street":"2072 Stoneman Cir","address_2":null,"address_3":null,"city":"Lakewood","state":"New York","county_province":null,"postal_code":"14750-9779","country":"United States","longitude":null,"latitude":null,"phone":"7167635479","website_url":"http://www.southerntierbrewing.com","updated_at":"2023-02-21T01:41:59.300Z","created_at":"2023-02-21T01:41:59.300Z"},{"id":"spider-bite-brewing-co-holbrook","name":"Spider Bite Brewing Co","brewery_type":"micro","street":"920 Lincoln Ave Unit 5","address_2":null,"address_3":null,"city":"Holbrook","state":"New York","county_province":null,"postal_code":"11741-2257","country":"United States","longitude":null,"latitude":null,"phone":"6319423255","website_url":"http://www.spiderbitebeer.com","updated_at":"2023-02-21T01:41:59.300Z","created_at":"2023-02-21T01:41:59.300Z"},{"id":"squarehead-brewing-holbrook","name":"SquareHead Brewing","brewery_type":"micro","street":"405 High St Ste 1","address_2":null,"address_3":null,"city":"Holbrook","state":"New York","county_province":null,"postal_code":"11741-5317","country":"United States","longitude":null,"latitude":null,"phone":"6319213060","website_url":"http://www.squareheadbrewing.com","updated_at":"2023-02-21T01:41:59.300Z","created_at":"2023-02-21T01:41:59.300Z"},{"id":"staten-island-beer-company-staten-island","name":"Staten Island Beer Company","brewery_type":"micro","street":"20 Kinsey Pl","address_2":null,"address_3":null,"city":"Staten Island","state":"New York","county_province":null,"postal_code":"10303-1427","country":"United States","longitude":"-74.17033729","latitude":"40.62874743","phone":"7183908445","website_url":"http://www.sibeerco.com","updated_at":"2023-02-21T01:41:59.300Z","created_at":"2023-02-21T01:41:59.300Z"},{"id":"steadfast-beer-co-albany","name":"Steadfast Beer Co","brewery_type":"contract","street":"1756 Western Ave Rear","address_2":null,"address_3":null,"city":"Albany","state":"New York","county_province":null,"postal_code":"12203-4414","country":"United States","longitude":null,"latitude":null,"phone":null,"website_url":"http://www.steadfastbeer.com","updated_at":"2023-02-21T01:41:59.300Z","created_at":"2023-02-21T01:41:59.300Z"},{"id":"steuben-brewing-company-hammondsport","name":"Steuben Brewing Company","brewery_type":"micro","street":"10286 Judson Rd","address_2":null,"address_3":null,"city":"Hammondsport","state":"New York","county_province":null,"postal_code":"14840-9668","country":"United States","longitude":null,"latitude":null,"phone":"6072798874","website_url":"http://www.steubenbrewingcompany.com","updated_at":"2023-02-21T01:41:59.300Z","created_at":"2023-02-21T01:41:59.300Z"},{"id":"stoneyard-brewing-company-brockport","name":"Stoneyard Brewing Company","brewery_type":"brewpub","street":"48 Merchant St","address_2":null,"address_3":null,"city":"Brockport","state":"New York","county_province":null,"postal_code":"14420","country":"United States","longitude":null,"latitude":null,"phone":"5856373390","website_url":"http://www.stoneyardbrewingcompany.com","updated_at":"2023-02-21T01:41:59.300Z","created_at":"2023-02-21T01:41:59.300Z"},{"id":"stout-beard-brewing-company-syracuse","name":"Stout Beard Brewing Company","brewery_type":"brewpub","street":"1153 W Fayette St Ste 102","address_2":null,"address_3":null,"city":"Syracuse","state":"New York","county_province":null,"postal_code":"13204-2740","country":"United States","longitude":null,"latitude":null,"phone":"3153993016","website_url":"http://www.stoutbeardbrewery.com","updated_at":"2023-02-21T01:41:59.300Z","created_at":"2023-02-21T01:41:59.300Z"},{"id":"strangebird-beer-rochester","name":"Strangebird Beer","brewery_type":"micro","street":"62 Marshall Street","address_2":null,"address_3":null,"city":"Rochester","state":"New York","county_province":null,"postal_code":"14607","country":"United States","longitude":"-77.601928","latitude":"43.1512774545221","phone":"5855058700","website_url":"https://www.strangebirdbeer.com","updated_at":"2023-02-21T01:41:59.300Z","created_at":"2023-02-21T01:41:59.300Z"},{"id":"strong-rope-brewery-brooklyn","name":"Strong Rope Brewery","brewery_type":"micro","street":"574A President St","address_2":null,"address_3":null,"city":"Brooklyn","state":"New York","county_province":null,"postal_code":"11215-1019","country":"United States","longitude":"-73.9840898","latitude":"40.6769023","phone":"5857033010","website_url":"http://www.strongropebrewery.com","updated_at":"2023-02-21T01:41:59.300Z","created_at":"2023-02-21T01:41:59.300Z"},{"id":"stumblin-monkey-brewing-co-victor","name":"Stumblin' Monkey Brewing Co","brewery_type":"micro","street":"61 School St Ste G","address_2":null,"address_3":null,"city":"Victor","state":"New York","county_province":null,"postal_code":"14564-1420","country":"United States","longitude":null,"latitude":null,"phone":"5853988189","website_url":"http://www.stumblinmonkeybeer.com","updated_at":"2023-02-21T01:41:59.300Z","created_at":"2023-02-21T01:41:59.300Z"},{"id":"stump-city-brewing-llc-gloversville","name":"Stump City Brewing LLC","brewery_type":"micro","street":"521 W Fulton Street Ext","address_2":null,"address_3":null,"city":"Gloversville","state":"New York","county_province":null,"postal_code":"12078-6309","country":"United States","longitude":null,"latitude":null,"phone":"5188310722","website_url":"http://www.stumpcitybrewing.com","updated_at":"2023-02-21T01:41:59.300Z","created_at":"2023-02-21T01:41:59.300Z"},{"id":"suarez-family-brewery-hudson","name":"Suarez Family Brewery","brewery_type":"micro","street":"2278 RT. 9","address_2":null,"address_3":null,"city":"Hudson","state":"New York","county_province":null,"postal_code":"12534-4701","country":"United States","longitude":null,"latitude":null,"phone":"5185376464","website_url":"http://www.suarezfamilybrewery.com","updated_at":"2023-02-21T01:41:59.300Z","created_at":"2023-02-21T01:41:59.300Z"},{"id":"summerhill-brewing-llc-groton","name":"Summerhill Brewing LLC","brewery_type":"micro","street":"384 Champlin Rd N. Cayuga County","address_2":null,"address_3":null,"city":"Groton","state":"New York","county_province":null,"postal_code":"13073-3212","country":"United States","longitude":"-76.29601824","latitude":"42.63594387","phone":"6075916148","website_url":"http://www.facebook.com/Summerhill.brewing/","updated_at":"2023-02-21T01:41:59.300Z","created_at":"2023-02-21T01:41:59.300Z"},{"id":"svendale-brewing-co-millerton","name":"Svendale Brewing Co","brewery_type":"micro","street":null,"address_2":null,"address_3":null,"city":"Millerton","state":"New York","county_province":null,"postal_code":"12546-4553","country":"United States","longitude":null,"latitude":null,"phone":"9177039873","website_url":"http://svendale.com","updated_at":"2023-02-21T01:41:59.300Z","created_at":"2023-02-21T01:41:59.300Z"},{"id":"sweet-thursday-beer-co-brooklyn","name":"Sweet Thursday Beer Co","brewery_type":"planning","street":null,"address_2":null,"address_3":null,"city":"Brooklyn","state":"New York","county_province":null,"postal_code":"11215-6020","country":"United States","longitude":null,"latitude":null,"phone":"9176133980","website_url":"http://www.sweetthursdaybeer.com","updated_at":"2023-02-21T01:41:59.300Z","created_at":"2023-02-21T01:41:59.300Z"},{"id":"swiftwater-brewing-company-rochester","name":"Swiftwater Brewing Company","brewery_type":"brewpub","street":"378 Mount Hope Ave","address_2":null,"address_3":null,"city":"Rochester","state":"New York","county_province":null,"postal_code":"14620-1250","country":"United States","longitude":"-77.61227748","latitude":"43.14230324","phone":"5855303471","website_url":"http://www.swiftwaterbrewing.com","updated_at":"2023-02-21T01:41:59.300Z","created_at":"2023-02-21T01:41:59.300Z"},{"id":"syracuse-suds-factory-syracuse","name":"Syracuse Suds Factory","brewery_type":"brewpub","street":"320 S Clinton St","address_2":null,"address_3":null,"city":"Syracuse","state":"New York","county_province":null,"postal_code":"13202-1220","country":"United States","longitude":"-76.153679","latitude":"43.04846902","phone":"3154712253","website_url":"http://www.sudsfactory.com","updated_at":"2023-02-21T01:41:59.300Z","created_at":"2023-02-21T01:41:59.300Z"},{"id":"table-41-brewing-co-cohoes","name":"Table 41 Brewing Co.","brewery_type":"micro","street":"4 Dunsback Ferry Rd","address_2":null,"address_3":null,"city":"Cohoes","state":"New York","county_province":null,"postal_code":"12047-5016","country":"United States","longitude":null,"latitude":null,"phone":"5185270221","website_url":"http://www.table41brewing.com","updated_at":"2023-02-21T01:41:59.300Z","created_at":"2023-02-21T01:41:59.300Z"},{"id":"the-beer-diviner-petersburg","name":"The Beer Diviner","brewery_type":"micro","street":"243 Bly Hollow Rd","address_2":null,"address_3":null,"city":"Petersburg","state":"New York","county_province":null,"postal_code":"12040","country":"United States","longitude":null,"latitude":null,"phone":"5182106196","website_url":"http://www.thebeerdiviner.com","updated_at":"2023-02-21T01:41:59.300Z","created_at":"2023-02-21T01:41:59.300Z"},{"id":"the-brewers-collective-bay-shore","name":"The Brewers Collective","brewery_type":"micro","street":"1460 N Clinton Ave Unit N","address_2":null,"address_3":null,"city":"Bay Shore","state":"New York","county_province":null,"postal_code":"11706-4058","country":"United States","longitude":null,"latitude":null,"phone":"6316659000","website_url":"http://www.thebrewerscollective.com","updated_at":"2023-02-21T01:41:59.300Z","created_at":"2023-02-21T01:41:59.300Z"},{"id":"the-brewery-at-bacchus-new-paltz","name":"The Brewery At Bacchus","brewery_type":"brewpub","street":"4 S Chestnut St","address_2":null,"address_3":null,"city":"New Paltz","state":"New York","county_province":null,"postal_code":"12561-1902","country":"United States","longitude":"-74.0867508","latitude":"41.7472558","phone":"8452558636","website_url":"http://www.bacchusnewpaltz.com","updated_at":"2023-02-21T01:41:59.300Z","created_at":"2023-02-21T01:41:59.300Z"},{"id":"the-brewery-of-broken-dreams-hammondsport","name":"The Brewery of Broken Dreams","brewery_type":"micro","street":"8319 Pleasant Valley Rd","address_2":null,"address_3":null,"city":"Hammondsport","state":"New York","county_province":null,"postal_code":"14840-9549","country":"United States","longitude":null,"latitude":null,"phone":"6072244050","website_url":"http://www.thebreweryofbrokendreams.com","updated_at":"2023-02-21T01:41:59.300Z","created_at":"2023-02-21T01:41:59.300Z"},{"id":"the-bronx-brewery-bronx","name":"The Bronx Brewery","brewery_type":"micro","street":"856 E 136th St","address_2":null,"address_3":null,"city":"Bronx","state":"New York","county_province":null,"postal_code":"10454-3509","country":"United States","longitude":"-73.91064054","latitude":"40.801861","phone":"7184021000","website_url":"http://www.thebronxbrewery.com","updated_at":"2023-02-21T01:41:59.300Z","created_at":"2023-02-21T01:41:59.300Z"},{"id":"the-farmhouse-brewery-owego","name":"The FarmHouse Brewery","brewery_type":"micro","street":"14 George St","address_2":null,"address_3":null,"city":"Owego","state":"New York","county_province":null,"postal_code":"13827-1084","country":"United States","longitude":"-76.26950941","latitude":"42.11123746","phone":"6072272676","website_url":"http://www.thefarmhousebrewery.com","updated_at":"2023-02-21T01:41:59.300Z","created_at":"2023-02-21T01:41:59.300Z"},{"id":"the-food-works-brooklyn","name":"The Food Works","brewery_type":"planning","street":null,"address_2":null,"address_3":null,"city":"Brooklyn","state":"New York","county_province":null,"postal_code":"11206","country":"United States","longitude":null,"latitude":null,"phone":"6178512133","website_url":"http://www.thefoodworks.com","updated_at":"2023-02-21T01:41:59.300Z","created_at":"2023-02-21T01:41:59.300Z"},{"id":"the-good-shepherds-brewing-co-auburn","name":"The Good Shepherds Brewing Co","brewery_type":"micro","street":"31 Loop Rd Ste 1","address_2":null,"address_3":null,"city":"Auburn","state":"New York","county_province":null,"postal_code":"13021-3823","country":"United States","longitude":null,"latitude":null,"phone":"3154066498","website_url":"http://www.shepsbeer.com","updated_at":"2023-02-21T01:41:59.300Z","created_at":"2023-02-21T01:41:59.300Z"},{"id":"the-lost-borough-brewing-company-rochester","name":"The Lost Borough Brewing Company","brewery_type":"micro","street":"543 Atlantic Ave","address_2":null,"address_3":null,"city":"Rochester","state":"New York","county_province":null,"postal_code":"14609-7316","country":"United States","longitude":"-77.56856467","latitude":"43.15638738","phone":"5854718122","website_url":"http://www.lostboroughbrewing.com","updated_at":"2023-02-21T01:41:59.300Z","created_at":"2023-02-21T01:41:59.300Z"},{"id":"the-new-buffalo-brewing-co-inc-clarence","name":"The New Buffalo Brewing Co. Inc","brewery_type":"contract","street":"11163 Main St","address_2":null,"address_3":null,"city":"Clarence","state":"New York","county_province":null,"postal_code":"14031-1701","country":"United States","longitude":"-78.57052941","latitude":"42.98442517","phone":"7162007275","website_url":"http://www.newbuffalobrewing.com","updated_at":"2023-02-21T01:41:59.300Z","created_at":"2023-02-21T01:41:59.300Z"},{"id":"the-owls-brew-new-york","name":"The Owls Brew","brewery_type":"large","street":"135 W 29th St Rm 602","address_2":null,"address_3":null,"city":"New York","state":"New York","county_province":null,"postal_code":"10001-5175","country":"United States","longitude":null,"latitude":null,"phone":"2125640218","website_url":"http://www.theowlsbrew.com","updated_at":"2023-02-21T01:41:59.300Z","created_at":"2023-02-21T01:41:59.300Z"},{"id":"the-vb-brewery-victor","name":"The VB Brewery","brewery_type":"micro","street":"6606 State Route 96","address_2":null,"address_3":null,"city":"Victor","state":"New York","county_province":null,"postal_code":"14564-1409","country":"United States","longitude":null,"latitude":null,"phone":"5859028166","website_url":"http://www.thevbbrewery.com","updated_at":"2023-02-21T01:41:59.300Z","created_at":"2023-02-21T01:41:59.300Z"},{"id":"thin-man-brewery-buffalo","name":"Thin Man Brewery","brewery_type":"brewpub","street":"486 Elmwood Ave","address_2":null,"address_3":null,"city":"Buffalo","state":"New York","county_province":null,"postal_code":"14222-2014","country":"United States","longitude":"-78.87720285","latitude":"42.91037815","phone":"7169234100","website_url":"http://www.thinmanbrewery.com","updated_at":"2023-02-21T01:41:59.300Z","created_at":"2023-02-21T01:41:59.300Z"},{"id":"third-rail-beer-new-york","name":"Third Rail Beer","brewery_type":"contract","street":"928 Broadway Ste 902","address_2":null,"address_3":null,"city":"New York","state":"New York","county_province":null,"postal_code":"10010-8139","country":"United States","longitude":"-73.9893474","latitude":"40.7400479","phone":null,"website_url":"http://www.thirdrailbeer.com","updated_at":"2023-02-21T01:41:59.300Z","created_at":"2023-02-21T01:41:59.300Z"},{"id":"three-heads-brewing-rochester","name":"Three Heads Brewing","brewery_type":"micro","street":"186 Atlantic Ave","address_2":null,"address_3":null,"city":"Rochester","state":"New York","county_province":null,"postal_code":"14607-1213","country":"United States","longitude":"-77.58034655","latitude":"43.15611755","phone":"5852441224","website_url":"http://www.threeheadsbrewing.com","updated_at":"2023-02-21T01:41:59.300Z","created_at":"2023-02-21T01:41:59.300Z"},{"id":"three-huskies-brewing-and-dobbers-grill-canandaigua","name":"Three Huskies Brewing & Dobber's Grill","brewery_type":"brewpub","street":"401 Lakeshore Dr","address_2":null,"address_3":null,"city":"Canandaigua","state":"New York","county_province":null,"postal_code":"14424-2338","country":"United States","longitude":"-77.251124","latitude":"42.8723885","phone":"5852603530","website_url":"http://www.threehuskiesbrewing.com","updated_at":"2023-02-21T01:41:59.300Z","created_at":"2023-02-21T01:41:59.300Z"},{"id":"threes-brewing-brooklyn","name":"Threes Brewing","brewery_type":"micro","street":"333 Douglass St","address_2":null,"address_3":null,"city":"Brooklyn","state":"New York","county_province":null,"postal_code":"11217-3115","country":"United States","longitude":"-73.9821529","latitude":"40.6798144","phone":"7185222110","website_url":"http://www.threesbrewing.com","updated_at":"2023-02-21T01:41:59.300Z","created_at":"2023-02-21T01:41:59.300Z"},{"id":"tims-pumpkin-patch-marietta","name":"Tim's Pumpkin Patch","brewery_type":"micro","street":"2901 Rose Hill Rd","address_2":null,"address_3":null,"city":"Marietta","state":"New York","county_province":null,"postal_code":"13110-3236","country":"United States","longitude":"-76.34398","latitude":"42.911678","phone":"3156739209","website_url":"http://www.timspumpkinpatch.com","updated_at":"2023-02-21T01:41:59.300Z","created_at":"2023-02-21T01:41:59.300Z"},{"id":"toast-ale-new-york","name":"Toast Ale","brewery_type":"contract","street":"601 W 26th St Ste 325-291","address_2":null,"address_3":null,"city":"New York","state":"New York","county_province":null,"postal_code":"10001-1101","country":"United States","longitude":null,"latitude":null,"phone":"9162023851","website_url":"http://www.toastale.com/us","updated_at":"2023-02-21T01:41:59.300Z","created_at":"2023-02-21T01:41:59.300Z"},{"id":"township-7-brewing-co-llc-dickinson-center","name":"Township 7 Brewing Co. LLC","brewery_type":"micro","street":"303 State Route 11b","address_2":null,"address_3":null,"city":"Dickinson Center","state":"New York","county_province":null,"postal_code":"12930-2008","country":"United States","longitude":null,"latitude":null,"phone":"5186519532","website_url":"http://www.township7brewing.com","updated_at":"2023-02-21T01:41:59.300Z","created_at":"2023-02-21T01:41:59.300Z"},{"id":"transmitter-brewing-long-island-city","name":"Transmitter Brewing","brewery_type":"micro","street":"5302 11th St","address_2":null,"address_3":null,"city":"Long Island City","state":"New York","county_province":null,"postal_code":"11101-5917","country":"United States","longitude":"-73.9511062","latitude":"40.7431826","phone":"6463788529","website_url":"http://www.transmitterbrew.com","updated_at":"2023-02-21T01:41:59.300Z","created_at":"2023-02-21T01:41:59.300Z"},{"id":"tripend-brewing-troupsburg","name":"TripEnd Brewing","brewery_type":"micro","street":"3072 Prutsman Rd","address_2":null,"address_3":null,"city":"Troupsburg","state":"New York","county_province":null,"postal_code":"14885-9613","country":"United States","longitude":"-77.55268946","latitude":"42.09121034","phone":"6073467472","website_url":"http://www.tripendbrewing.com","updated_at":"2023-02-21T01:41:59.300Z","created_at":"2023-02-21T01:41:59.300Z"},{"id":"triphammer-bierwerks-fairport","name":"Triphammer Bierwerks","brewery_type":"micro","street":"111 Parce Ave Ste 3A-1","address_2":null,"address_3":null,"city":"Fairport","state":"New York","county_province":null,"postal_code":"14450-1467","country":"United States","longitude":null,"latitude":null,"phone":"5853888281","website_url":"http://www.triphammerbierwerks.com","updated_at":"2023-02-21T01:41:59.300Z","created_at":"2023-02-21T01:41:59.300Z"},{"id":"tuthilltown-spirits-gardiner","name":"Tuthilltown Spirits","brewery_type":"planning","street":null,"address_2":null,"address_3":null,"city":"Gardiner","state":"New York","county_province":null,"postal_code":"12525-5528","country":"United States","longitude":null,"latitude":null,"phone":"8452551527","website_url":null,"updated_at":"2023-02-21T01:41:59.300Z","created_at":"2023-02-21T01:41:59.300Z"},{"id":"tweaking-frog-brewing-company-farmingdale","name":"Tweaking Frog Brewing Company","brewery_type":"micro","street":"211 Main St Ste A","address_2":null,"address_3":null,"city":"Farmingdale","state":"New York","county_province":null,"postal_code":"11735-2675","country":"United States","longitude":null,"latitude":null,"phone":"6318975509","website_url":"http://www.tweakingfrogbrewing.com","updated_at":"2023-02-21T01:41:59.300Z","created_at":"2023-02-21T01:41:59.300Z"},{"id":"twisted-rail-brewing-company-canandaigua","name":"Twisted Rail Brewing Company","brewery_type":"micro","street":"169 Lakeshore Dr","address_2":null,"address_3":null,"city":"Canandaigua","state":"New York","county_province":null,"postal_code":"14424-2309","country":"United States","longitude":"-77.262436","latitude":"42.87507","phone":"5853960683","website_url":"http://www.twistedrailbrewing.com","updated_at":"2023-02-21T01:41:59.300Z","created_at":"2023-02-21T01:41:59.300Z"},{"id":"two-goats-brewing-burdett","name":"Two Goats Brewing","brewery_type":"brewpub","street":"5027 State Route 414","address_2":null,"address_3":null,"city":"Burdett","state":"New York","county_province":null,"postal_code":"14818-9816","country":"United States","longitude":null,"latitude":null,"phone":"607546","website_url":"http://www.twogoatsbrewing.com","updated_at":"2023-02-21T01:41:59.300Z","created_at":"2023-02-21T01:41:59.300Z"},{"id":"unified-beerworks-ballston-lake","name":"Unified Beerworks","brewery_type":"planning","street":null,"address_2":null,"address_3":null,"city":"Ballston Lake","state":"New York","county_province":null,"postal_code":"12019-1734","country":"United States","longitude":null,"latitude":null,"phone":"5184284185","website_url":"http://unified-beerworks.com","updated_at":"2023-02-21T01:41:59.300Z","created_at":"2023-02-21T01:41:59.300Z"},{"id":"upstate-brewing-co-elmira","name":"Upstate Brewing Co","brewery_type":"micro","street":"3028 Lake Rd","address_2":null,"address_3":null,"city":"Elmira","state":"New York","county_province":null,"postal_code":"14903-1409","country":"United States","longitude":null,"latitude":null,"phone":"6175198381","website_url":"http://www.upstatebrewing.com","updated_at":"2023-02-21T01:41:59.300Z","created_at":"2023-02-21T01:41:59.300Z"},{"id":"upward-brewing-co-livingston-manor","name":"Upward Brewing Co.","brewery_type":"planning","street":null,"address_2":null,"address_3":null,"city":"Livingston Manor","state":"New York","county_province":null,"postal_code":"12758-","country":"United States","longitude":null,"latitude":null,"phone":"8457980471","website_url":"http://www.upwardbrewing.com","updated_at":"2023-02-21T01:41:59.300Z","created_at":"2023-02-21T01:41:59.300Z"},{"id":"us-beer-brewers-at-the-cellar-door-oswego","name":"US Beer Brewers At the Cellar Door","brewery_type":"brewpub","street":"17 W Cayuga St","address_2":null,"address_3":null,"city":"Oswego","state":"New York","county_province":null,"postal_code":"13126-4000","country":"United States","longitude":"-76.51260925","latitude":"43.45769813","phone":"3152072381","website_url":"http://www.usbeerbrewers.beer","updated_at":"2023-02-21T01:41:59.300Z","created_at":"2023-02-21T01:41:59.300Z"},{"id":"valcour-brewing-company-llc-plattsburgh","name":"Valcour Brewing Company LLC","brewery_type":"micro","street":"49 Ohio Rd","address_2":null,"address_3":null,"city":"Plattsburgh","state":"New York","county_province":null,"postal_code":"12903-4409","country":"United States","longitude":null,"latitude":null,"phone":"5183242337","website_url":"http://www.valcourbrewery.com","updated_at":"2023-02-21T01:41:59.300Z","created_at":"2023-02-21T01:41:59.300Z"},{"id":"velveteen-brewing-co-mamaroneck","name":"Velveteen Brewing Co","brewery_type":"planning","street":null,"address_2":null,"address_3":null,"city":"Mamaroneck","state":"New York","county_province":null,"postal_code":"10543-4719","country":"United States","longitude":null,"latitude":null,"phone":null,"website_url":null,"updated_at":"2023-02-21T01:41:59.300Z","created_at":"2023-02-21T01:41:59.300Z"},{"id":"wagner-valley-brewing-co-lodi","name":"Wagner Valley Brewing Co","brewery_type":"micro","street":"9322 Route 414","address_2":null,"address_3":null,"city":"Lodi","state":"New York","county_province":null,"postal_code":"14860-9641","country":"United States","longitude":null,"latitude":null,"phone":"6075826450","website_url":"http://www.wagnerbrewing.com","updated_at":"2023-02-21T01:41:59.300Z","created_at":"2023-02-21T01:41:59.300Z"},{"id":"war-flag-brewing-co-brooklyn","name":"War Flag Brewing Co","brewery_type":"proprietor","street":"649 Morgan Ave Ste B16-5","address_2":null,"address_3":null,"city":"Brooklyn","state":"New York","county_province":null,"postal_code":"11222-3940","country":"United States","longitude":null,"latitude":null,"phone":"6466968096","website_url":"http://www.warflag.nyc","updated_at":"2023-02-21T01:41:59.300Z","created_at":"2023-02-21T01:41:59.300Z"},{"id":"war-horse-brewing-company-geneva","name":"War Horse Brewing Company","brewery_type":"brewpub","street":"623 Lerch Rd Ste 5","address_2":null,"address_3":null,"city":"Geneva","state":"New York","county_province":null,"postal_code":"14456-9295","country":"United States","longitude":null,"latitude":null,"phone":"3155854432","website_url":"http://www.3brotherswinery.com","updated_at":"2023-02-21T01:41:59.300Z","created_at":"2023-02-21T01:41:59.300Z"},{"id":"wartega-brooklyn","name":"Wartega","brewery_type":"micro","street":"33 35th St Unit 6A","address_2":null,"address_3":null,"city":"Brooklyn","state":"New York","county_province":null,"postal_code":"11232-2210","country":"United States","longitude":null,"latitude":null,"phone":"9173971171","website_url":"http://www.wartega.com","updated_at":"2023-02-21T01:41:59.300Z","created_at":"2023-02-21T01:41:59.300Z"},{"id":"water-street-brewing-co-binghamton","name":"Water Street Brewing Co","brewery_type":"brewpub","street":"168 Water St Fl 1","address_2":null,"address_3":null,"city":"Binghamton","state":"New York","county_province":null,"postal_code":"13901-2736","country":"United States","longitude":null,"latitude":null,"phone":"6072174546","website_url":"http://www.waterstreetbrewingco.com","updated_at":"2023-02-21T01:41:59.300Z","created_at":"2023-02-21T01:41:59.300Z"},{"id":"webe-brewing-company-geneva","name":"WeBe Brewing Company","brewery_type":"micro","street":"796 Pre-Emption Road","address_2":null,"address_3":null,"city":"Geneva","state":"New York","county_province":null,"postal_code":"14456","country":"United States","longitude":"-77.01110326","latitude":"42.86463714","phone":"3153254834","website_url":"http://www.WeBeBrewing.com","updated_at":"2023-02-21T01:41:59.300Z","created_at":"2023-02-21T01:41:59.300Z"},{"id":"west-kill-brewing-west-kill","name":"West Kill Brewing","brewery_type":"micro","street":"2173 Spruceton Rd","address_2":null,"address_3":null,"city":"West Kill","state":"New York","county_province":null,"postal_code":"12492-5823","country":"United States","longitude":"-74.382878","latitude":"42.205758","phone":"5189896001","website_url":"http://www.westkillbrewing.com","updated_at":"2023-02-21T01:41:59.300Z","created_at":"2023-02-21T01:41:59.300Z"},{"id":"west-shore-brewing-co-clarence","name":"West Shore Brewing Co","brewery_type":"micro","street":"10995 Main St","address_2":null,"address_3":null,"city":"Clarence","state":"New York","county_province":null,"postal_code":"14031-1735","country":"United States","longitude":"-78.57810318","latitude":"42.98200648","phone":"7169983752","website_url":"http://westshorebrewing.com","updated_at":"2023-02-21T01:41:59.300Z","created_at":"2023-02-21T01:41:59.300Z"},{"id":"westtown-brew-works-westtown","name":"Westtown Brew Works","brewery_type":"micro","street":"236 Schefflers Rd","address_2":null,"address_3":null,"city":"Westtown","state":"New York","county_province":null,"postal_code":"10998-","country":"United States","longitude":"-74.53707955","latitude":"41.31431295","phone":"8453044152","website_url":"http://www.westtownbrewworks.com","updated_at":"2023-02-21T01:41:59.300Z","created_at":"2023-02-21T01:41:59.300Z"},{"id":"whichcraft-brews-webster","name":"WhichCraft Brews","brewery_type":"brewpub","street":"1900 Empire Blvd","address_2":null,"address_3":null,"city":"Webster","state":"New York","county_province":null,"postal_code":"14580-1934","country":"United States","longitude":"-77.501948","latitude":"43.193429","phone":"5852222739","website_url":"http://www.whichcraftbrews.com","updated_at":"2023-02-21T01:41:59.300Z","created_at":"2023-02-21T01:41:59.300Z"},{"id":"whitman-brewing-company-saratoga-springs","name":"Whitman Brewing Company","brewery_type":"planning","street":null,"address_2":null,"address_3":null,"city":"Saratoga Springs","state":"New York","county_province":null,"postal_code":"12866","country":"United States","longitude":null,"latitude":null,"phone":"6317868701","website_url":"http://www.whitmanbrewing.com","updated_at":"2023-02-21T01:41:59.300Z","created_at":"2023-02-21T01:41:59.300Z"},{"id":"wild-east-brewing-co-brooklyn","name":"Wild East Brewing Co.","brewery_type":"planning","street":null,"address_2":null,"address_3":null,"city":"Brooklyn","state":"New York","county_province":null,"postal_code":"11215-5511","country":"United States","longitude":null,"latitude":null,"phone":null,"website_url":"http://www.wildeastbrewing.com","updated_at":"2023-02-21T01:41:59.300Z","created_at":"2023-02-21T01:41:59.300Z"},{"id":"willow-rock-brewing-company-syracuse","name":"Willow Rock Brewing Company","brewery_type":"micro","street":"115 Game Rd","address_2":null,"address_3":null,"city":"Syracuse","state":"New York","county_province":null,"postal_code":"13210-4216","country":"United States","longitude":"-76.13147154","latitude":"43.01155518","phone":"3159286948","website_url":"http://www.willowrockbrew.com","updated_at":"2023-02-21T01:41:59.300Z","created_at":"2023-02-21T01:41:59.300Z"},{"id":"windy-brew-strykersville","name":"Windy Brew","brewery_type":"micro","street":"733 Route 20a","address_2":null,"address_3":null,"city":"Strykersville","state":"New York","county_province":null,"postal_code":"14145-9584","country":"United States","longitude":null,"latitude":null,"phone":"5858054006","website_url":"http://www.windybrews.com","updated_at":"2023-02-21T01:41:59.300Z","created_at":"2023-02-21T01:41:59.300Z"},{"id":"winneras-circle-brewing-company-saratoga-springs","name":"Winnerâs Circle Brewing Company","brewery_type":"contract","street":"21 Whistler Court Apt 4","address_2":null,"address_3":null,"city":"Saratoga Springs","state":"New York","county_province":null,"postal_code":"12866","country":"United States","longitude":null,"latitude":null,"phone":"5183657864","website_url":"http://www.winnerscirclebeer.com","updated_at":"2023-02-21T01:41:59.300Z","created_at":"2023-02-21T01:41:59.300Z"},{"id":"wolf-hollow-brewing-company-schenectady","name":"Wolf Hollow Brewing Company","brewery_type":"micro","street":"6882 Amsterdam Rd","address_2":null,"address_3":null,"city":"Schenectady","state":"New York","county_province":null,"postal_code":"12302","country":"United States","longitude":"-74.0809254","latitude":"42.8969263","phone":"5182144093","website_url":"http://www.wolfhollowbrewing.com","updated_at":"2023-02-21T01:41:59.300Z","created_at":"2023-02-21T01:41:59.300Z"},{"id":"wood-boat-brewery-clayton","name":"Wood Boat Brewery","brewery_type":"brewpub","street":"625 Mary St Ste A","address_2":null,"address_3":null,"city":"Clayton","state":"New York","county_province":null,"postal_code":"13624-1131","country":"United States","longitude":null,"latitude":null,"phone":"3156863233","website_url":"http://www.woodboatbrewery.com","updated_at":"2023-02-21T01:41:59.300Z","created_at":"2023-02-21T01:41:59.300Z"},{"id":"wood-kettle-brewing-hilton","name":"Wood Kettle Brewing","brewery_type":"brewpub","street":"1192 Manitou Rd","address_2":null,"address_3":null,"city":"Hilton","state":"New York","county_province":null,"postal_code":"14468-9331","country":"United States","longitude":null,"latitude":null,"phone":"5853664183","website_url":null,"updated_at":"2023-02-21T01:41:59.300Z","created_at":"2023-02-21T01:41:59.300Z"},{"id":"woodcock-brothers-brewing-wilson","name":"Woodcock Brothers Brewing","brewery_type":"brewpub","street":"638 Lake St","address_2":null,"address_3":null,"city":"Wilson","state":"New York","county_province":null,"postal_code":"14172-9600","country":"United States","longitude":"-78.825882","latitude":"43.299013","phone":"7163334000","website_url":"http://www.woodcockbrothersbrewery.com","updated_at":"2023-02-21T01:41:59.300Z","created_at":"2023-02-21T01:41:59.300Z"},{"id":"wooden-skiff-beer-co-buffalo","name":"Wooden Skiff Beer Co.","brewery_type":"contract","street":null,"address_2":null,"address_3":null,"city":"Buffalo","state":"New York","county_province":null,"postal_code":"14216-3611","country":"United States","longitude":null,"latitude":null,"phone":"7062285064","website_url":"http://www.woodenskiff.com","updated_at":"2023-02-21T01:41:59.300Z","created_at":"2023-02-21T01:41:59.300Z"},{"id":"woodland-farm-brewery-utica","name":"Woodland Farm Brewery","brewery_type":"micro","street":"6002 Trenton Rd","address_2":null,"address_3":null,"city":"Utica","state":"New York","county_province":null,"postal_code":"13502-6224","country":"United States","longitude":"-75.212678","latitude":"43.148929","phone":"3158643051","website_url":"http://www.woodlandbeer.com","updated_at":"2023-02-21T01:41:59.300Z","created_at":"2023-02-21T01:41:59.300Z"},{"id":"woodstock-brewing-phoenicia","name":"Woodstock Brewing","brewery_type":"micro","street":"5581 NY-28","address_2":null,"address_3":null,"city":"Phoenicia","state":"New York","county_province":null,"postal_code":"12464","country":"United States","longitude":null,"latitude":null,"phone":"8456880054","website_url":"http://www.drinkwoodstock.com","updated_at":"2023-02-21T01:41:59.300Z","created_at":"2023-02-21T01:41:59.300Z"},{"id":"wt-brews-llc-baldwinsville","name":"WT Brews LLC","brewery_type":"micro","street":"3 W Genesee St","address_2":null,"address_3":null,"city":"Baldwinsville","state":"New York","county_province":null,"postal_code":"13027-1104","country":"United States","longitude":"-76.33288571","latitude":"43.15855314","phone":"3158573266","website_url":"http://www.wtbrews.com","updated_at":"2023-02-21T01:41:59.300Z","created_at":"2023-02-21T01:41:59.300Z"},{"id":"yard-owl-craft-brewery-gardiner","name":"Yard Owl Craft Brewery","brewery_type":"brewpub","street":"19 Osprey Ln","address_2":null,"address_3":null,"city":"Gardiner","state":"New York","county_province":null,"postal_code":"12525-5339","country":"United States","longitude":"-74.14716916","latitude":"41.69154658","phone":"8456338576","website_url":"http://www.yardowlcraftbrewery.com","updated_at":"2023-02-21T01:41:59.300Z","created_at":"2023-02-21T01:41:59.300Z"},{"id":"yonkers-brewing-co-yonkers","name":"Yonkers Brewing Co","brewery_type":"micro","street":"92 Main St","address_2":null,"address_3":null,"city":"Yonkers","state":"New York","county_province":null,"postal_code":"10701-7065","country":"United States","longitude":"-73.9029331","latitude":"40.9345744","phone":"9143915805","website_url":"http://www.yonkersbrewing.com","updated_at":"2023-02-21T01:41:59.300Z","created_at":"2023-02-21T01:41:59.300Z"},{"id":"young-lion-brewing-co-canandaigua","name":"Young Lion Brewing Co","brewery_type":"micro","street":"24 Lakeshore Dr","address_2":null,"address_3":null,"city":"Canandaigua","state":"New York","county_province":null,"postal_code":"14424-2333","country":"United States","longitude":"-77.26938995","latitude":"42.87560967","phone":"5852034337","website_url":"http://www.younglionbrewing.com","updated_at":"2023-02-21T01:41:59.300Z","created_at":"2023-02-21T01:41:59.300Z"}]