{ "nyc_breweries" : [
    {
      "id": "alewife-brewing-company-long-island-city",
      "name": "Alewife Brewing Company",
      "brewery_type": "brewpub",
      "street": "514 51st Ave",
      "address_2": null,
      "address_3": null,
      "city": "Long Island City",
      "state": "New York",
      "county_province": null,
      "postal_code": "11101-5879",
      "country": "United States",
      "longitude": "-73.95625257",
      "latitude": "40.74232214",
      "phone": "7189377494",
      "website_url": "http://www.alewife.beer",
      "updated_at": "2023-02-21T01:41:59.300Z",
      "created_at": "2023-02-21T01:41:59.300Z",
      "Borough": "Queens",
      "Neighborhood": "Northwest Queens"
    },
    {
      "id": "alphabet-city-brewing-co-new-york",
      "name": "Alphabet City Brewing Co",
      "brewery_type": "contract",
      "street": "96 Avenue C Frnt 4",
      "address_2": null,
      "address_3": null,
      "city": "New York",
      "state": "New York",
      "county_province": null,
      "postal_code": "10009-7055",
      "country": "United States",
      "longitude": null,
      "latitude": null,
      "phone": "9143566809",
      "website_url": "http://www.acbnyc.com",
      "updated_at": "2023-02-21T01:41:59.300Z",
      "created_at": "2023-02-21T01:41:59.300Z",
      "Borough": "Manhattan",
      "Neighborhood": "Lower East Side"
    },
    {
      "id": "b9-beverages-inc-new-york",
      "name": "B9 Beverages Inc",
      "brewery_type": "contract",
      "street": "404 5th Ave # 7.055",
      "address_2": null,
      "address_3": null,
      "city": "New York",
      "state": "New York",
      "county_province": null,
      "postal_code": "10018-2797",
      "country": "United States",
      "longitude": null,
      "latitude": null,
      "phone": null,
      "website_url": null,
      "updated_at": "2023-02-21T01:41:59.300Z",
      "created_at": "2023-02-21T01:41:59.300Z",
      "Borough": "Manhattan",
      "Neighborhood": "Chelsea and Clinton"
    },
    {
      "id": "big-alice-brewing-company-long-island-city",
      "name": "Big Alice Brewing Company",
      "brewery_type": "micro",
      "street": "808 43rd Rd",
      "address_2": null,
      "address_3": null,
      "city": "Long Island City",
      "state": "New York",
      "county_province": null,
      "postal_code": "11101-6820",
      "country": "United States",
      "longitude": null,
      "latitude": null,
      "phone": "3476882337",
      "website_url": "http://www.bigalicebrewing.com",
      "updated_at": "2023-02-21T01:41:59.300Z",
      "created_at": "2023-02-21T01:41:59.300Z",
      "Borough": "Queens",
      "Neighborhood": "Northwest Queens"
    },
    {
      "id": "birreria-eataly-new-york",
      "name": "Birreria @ Eataly",
      "brewery_type": "brewpub",
      "street": "200 5th Ave Fl 14",
      "address_2": null,
      "address_3": null,
      "city": "New York",
      "state": "New York",
      "county_province": null,
      "postal_code": "10010-3302",
      "country": "United States",
      "longitude": null,
      "latitude": null,
      "phone": "2125390204",
      "website_url": "http://www.eatalyny.com",
      "updated_at": "2023-02-21T01:41:59.300Z",
      "created_at": "2023-02-21T01:41:59.300Z",
      "Borough": "Manhattan",
      "Neighborhood": "Gramercy Park and Murray Hill"
    },
    {
      "id": "braven-brewing-company-brooklyn-2",
      "name": "Braven Brewing Company",
      "brewery_type": "contract",
      "street": "362 Jefferson St # 320",
      "address_2": null,
      "address_3": null,
      "city": "Brooklyn",
      "state": "New York",
      "county_province": null,
      "postal_code": "11237-2312",
      "country": "United States",
      "longitude": "-73.92464725",
      "latitude": "40.70559895",
      "phone": "9292956673",
      "website_url": "http://www.bravenbrewing.com",
      "updated_at": "2023-02-21T01:41:59.300Z",
      "created_at": "2023-02-21T01:41:59.300Z",
      "Borough": "Brooklyn",
      "Neighborhood": "Bushwick and Williamsburg"
    },
    {
      "id": "bridge-and-tunnel-brewery-ridgewood",
      "name": "Bridge And Tunnel Brewery",
      "brewery_type": "micro",
      "street": "15-35 Decatur St",
      "address_2": null,
      "address_3": null,
      "city": "Ridgewood",
      "state": "New York",
      "county_province": null,
      "postal_code": "11385-5818",
      "country": "United States",
      "longitude": "-73.9017521",
      "latitude": "40.6943348",
      "phone": "3473928593",
      "website_url": "http://www.bridgeandtunnelbrewery.com",
      "updated_at": "2023-02-21T01:41:59.300Z",
      "created_at": "2023-02-21T01:41:59.300Z",
      "Borough": "Queens",
      "Neighborhood": "West Central Queens"
    },
    {
      "id": "chelsea-craft-brewing-co-llc-bronx",
      "name": "Chelsea Craft Brewing Co Llc",
      "brewery_type": "micro",
      "street": "463 E 173rd St",
      "address_2": null,
      "address_3": null,
      "city": "Bronx",
      "state": "New York",
      "county_province": null,
      "postal_code": "10457-8105",
      "country": "United States",
      "longitude": "-73.9015282",
      "latitude": "40.841904",
      "phone": "7184848850",
      "website_url": "http://www.chelseacraftbrewing.com",
      "updated_at": "2023-02-21T01:41:59.300Z",
      "created_at": "2023-02-21T01:41:59.300Z",
      "Borough": "Bronx",
      "Neighborhood": "Central Bronx"
    },
    {
      "id": "circa-brewing-co-brooklyn",
      "name": "Circa Brewing Co",
      "brewery_type": "brewpub",
      "street": "141 Lawrence St",
      "address_2": null,
      "address_3": null,
      "city": "Brooklyn",
      "state": "New York",
      "county_province": null,
      "postal_code": "11201",
      "country": "United States",
      "longitude": "-73.986155",
      "latitude": "40.6917243",
      "phone": "7188580055",
      "website_url": "http://www.circabrewing.co",
      "updated_at": "2023-02-21T01:41:59.300Z",
      "created_at": "2023-02-21T01:41:59.300Z",
      "Borough": "Brooklyn",
      "Neighborhood": "Northwest Brooklyn"
    },
    {
      "id": "coney-island-beer-brooklyn",
      "name": "Coney Island Beer",
      "brewery_type": "micro",
      "street": "1904 Surf Ave",
      "address_2": null,
      "address_3": null,
      "city": "Brooklyn",
      "state": "New York",
      "county_province": null,
      "postal_code": "11224-2410",
      "country": "United States",
      "longitude": "-73.98572367",
      "latitude": "40.57502661",
      "phone": "8184518452",
      "website_url": "http://www.coneyislandbeer.com",
      "updated_at": "2023-02-21T01:41:59.300Z",
      "created_at": "2023-02-21T01:41:59.300Z",
      "Borough": "Brooklyn",
      "Neighborhood": "Southern Brooklyn"
    },
    {
      "id": "death-avenue-new-york",
      "name": "Death Avenue",
      "brewery_type": "brewpub",
      "street": "315 10th Ave B/W 28th & 29th St.",
      "address_2": null,
      "address_3": null,
      "city": "New York",
      "state": "New York",
      "county_province": null,
      "postal_code": "10001-1416",
      "country": "United States",
      "longitude": null,
      "latitude": null,
      "phone": "2126958080",
      "website_url": "http://www.deathave.com",
      "updated_at": "2023-02-21T01:41:59.300Z",
      "created_at": "2023-02-21T01:41:59.300Z",
      "Borough": "Manhattan",
      "Neighborhood": "Chelsea and Clinton"
    },
    {
      "id": "fifth-hammer-brewing-company-long-island-city",
      "name": "Fifth Hammer Brewing Company",
      "brewery_type": "micro",
      "street": "10-28 46th Ave",
      "address_2": null,
      "address_3": null,
      "city": "Long Island City",
      "state": "New York",
      "county_province": null,
      "postal_code": "11101-5217",
      "country": "United States",
      "longitude": "-73.9515404",
      "latitude": "40.7464921",
      "phone": "7186632084",
      "website_url": "http://www.fifthhammerbrewing.com",
      "updated_at": "2023-02-21T01:41:59.300Z",
      "created_at": "2023-02-21T01:41:59.300Z",
      "Borough": "Queens",
      "Neighborhood": "Northwest Queens"
    },
    {
      "id": "finback-brewery-queens",
      "name": "Finback Brewery",
      "brewery_type": "micro",
      "street": "78-01 77th Ave",
      "address_2": null,
      "address_3": null,
      "city": "Queens",
      "state": "New York",
      "county_province": null,
      "postal_code": "11385-7518",
      "country": "United States",
      "longitude": "-73.8732597",
      "latitude": "40.7067227",
      "phone": "7186288600",
      "website_url": "http://www.finbackbrewery.com",
      "updated_at": "2023-02-21T01:41:59.300Z",
      "created_at": "2023-02-21T01:41:59.300Z",
      "Borough": "Queens",
      "Neighborhood": "West Central Queens"
    },
    {
      "id": "five-boroughs-brewing-co-brooklyn",
      "name": "Five Boroughs Brewing Co",
      "brewery_type": "micro",
      "street": "215 47th St",
      "address_2": null,
      "address_3": null,
      "city": "Brooklyn",
      "state": "New York",
      "county_province": null,
      "postal_code": "11220-1009",
      "country": "United States",
      "longitude": "-74.0144263",
      "latitude": "40.6505216",
      "phone": "7183558575",
      "website_url": "http://www.fiveboroughs.com",
      "updated_at": "2023-02-21T01:41:59.300Z",
      "created_at": "2023-02-21T01:41:59.300Z",
      "Borough": "Brooklyn",
      "Neighborhood": "Sunset Park"
    },
    {
      "id": "flagship-brewery-llc-staten-island",
      "name": "Flagship Brewery, LLC.",
      "brewery_type": "micro",
      "street": "40 Minthorne St",
      "address_2": null,
      "address_3": null,
      "city": "Staten Island",
      "state": "New York",
      "county_province": null,
      "postal_code": "10301-3241",
      "country": "United States",
      "longitude": "-74.0756332",
      "latitude": "40.6372257",
      "phone": "7184485284",
      "website_url": "http://www.flagshipbrewery.nyc",
      "updated_at": "2023-02-21T01:41:59.300Z",
      "created_at": "2023-02-21T01:41:59.300Z",
      "Borough": "Staten Island",
      "Neighborhood": "Stapleton and St. George"
    },
    {
      "id": "folksbier-brooklyn",
      "name": "Folksbier",
      "brewery_type": "regional",
      "street": "101 Luquer St # 103",
      "address_2": null,
      "address_3": null,
      "city": "Brooklyn",
      "state": "New York",
      "county_province": null,
      "postal_code": "11231-3308",
      "country": "United States",
      "longitude": "-74.00099132",
      "latitude": "40.6779358",
      "phone": null,
      "website_url": "http://www.folksbier.com",
      "updated_at": "2023-02-21T01:41:59.300Z",
      "created_at": "2023-02-21T01:41:59.300Z",
      "Borough": "Brooklyn",
      "Neighborhood": "Northwest Brooklyn"
    },
    {
      "id": "greenpoint-beer-brooklyn",
      "name": "Greenpoint Beer",
      "brewery_type": "brewpub",
      "street": "7 N 15th St",
      "address_2": null,
      "address_3": null,
      "city": "Brooklyn",
      "state": "New York",
      "county_province": null,
      "postal_code": "11222-2838",
      "country": "United States",
      "longitude": "-73.99607617",
      "latitude": "40.66893407",
      "phone": "9177501541",
      "website_url": "http://www.greenpointbeer.com",
      "updated_at": "2023-02-21T01:41:59.300Z",
      "created_at": "2023-02-21T01:41:59.300Z",
      "Borough": "Brooklyn",
      "Neighborhood": "Greenpoint"
    },
    {
      "id": "grimm-artisanal-ales-brooklyn",
      "name": "Grimm Artisanal Ales",
      "brewery_type": "micro",
      "street": "990 Metropolitan Ave",
      "address_2": null,
      "address_3": null,
      "city": "Brooklyn",
      "state": "New York",
      "county_province": null,
      "postal_code": "11211-2607",
      "country": "United States",
      "longitude": "-73.93651911",
      "latitude": "40.7142757",
      "phone": null,
      "website_url": "http://GrimmAles.com",
      "updated_at": "2023-02-21T01:41:59.300Z",
      "created_at": "2023-02-21T01:41:59.300Z",
      "Borough": "Brooklyn",
      "Neighborhood": "Greenpoint"
    },
    {
      "id": "gun-hill-brewing-co-bronx",
      "name": "Gun Hill Brewing Co",
      "brewery_type": "micro",
      "street": "3227 Laconia Ave",
      "address_2": null,
      "address_3": null,
      "city": "Bronx",
      "state": "New York",
      "county_province": null,
      "postal_code": "10469-1403",
      "country": "United States",
      "longitude": "-73.855814",
      "latitude": "40.8721114",
      "phone": "7188810010",
      "website_url": "http://www.gunhillbrewing.com",
      "updated_at": "2023-02-21T01:41:59.300Z",
      "created_at": "2023-02-21T01:41:59.300Z",
      "Borough": "Bronx",
      "Neighborhood": "Northeast Bronx"
    },
    {
      "id": "harlem-blue-beer-new-york",
      "name": "Harlem Blue Beer",
      "brewery_type": "proprietor",
      "street": "2214 Frederick Douglass Blvd Ste 267",
      "address_2": null,
      "address_3": null,
      "city": "New York",
      "state": "New York",
      "county_province": null,
      "postal_code": "10026-1123",
      "country": "United States",
      "longitude": null,
      "latitude": null,
      "phone": null,
      "website_url": "http://www.harlemblue.com",
      "updated_at": "2023-02-21T01:41:59.300Z",
      "created_at": "2023-02-21T01:41:59.300Z",
      "Borough": "Manhattan",
      "Neighborhood": "Central Harlem"
    },
    {
      "id": "harlem-brewing-co-new-york",
      "name": "Harlem Brewing Co",
      "brewery_type": "contract",
      "street": "2 W 123rd St",
      "address_2": null,
      "address_3": null,
      "city": "New York",
      "state": "New York",
      "county_province": null,
      "postal_code": "10027-5623",
      "country": "United States",
      "longitude": "-73.94532799",
      "latitude": "40.8058068",
      "phone": "8885596735",
      "website_url": "http://www.harlembrewingcompany.com",
      "updated_at": "2023-02-21T01:41:59.300Z",
      "created_at": "2023-02-21T01:41:59.300Z",
      "Borough": "Manhattan",
      "Neighborhood": "Central Harlem"
    },
    {
      "id": "heartland-brewery-new-york",
      "name": "Heartland Brewery",
      "brewery_type": "contract",
      "street": "35 Union Sq W Frnt 1",
      "address_2": null,
      "address_3": null,
      "city": "New York",
      "state": "New York",
      "county_province": null,
      "postal_code": "10003-3200",
      "country": "United States",
      "longitude": null,
      "latitude": null,
      "phone": "2126453400",
      "website_url": "http://www.heartlandbrewery.com",
      "updated_at": "2023-02-21T01:41:59.300Z",
      "created_at": "2023-02-21T01:41:59.300Z",
      "Borough": "Manhattan",
      "Neighborhood": "Lower East Side"
    },
    {
      "id": "iconyc-brewing-company-long-island-city",
      "name": "Iconyc Brewing Company",
      "brewery_type": "micro",
      "street": "45-13 34th Ave",
      "address_2": null,
      "address_3": null,
      "city": "Long Island City",
      "state": "New York",
      "county_province": null,
      "postal_code": "11101-1041",
      "country": "United States",
      "longitude": null,
      "latitude": null,
      "phone": "3473421360",
      "website_url": "http://www.iconycbrewing.com",
      "updated_at": "2023-02-21T01:41:59.300Z",
      "created_at": "2023-02-21T01:41:59.300Z",
      "Borough": "Queens",
      "Neighborhood": "Northwest Queens"
    },
    {
      "id": "interboro-spirits-and-ales-brooklyn",
      "name": "Interboro Spirits And Ales",
      "brewery_type": "brewpub",
      "street": "942 Grand St",
      "address_2": null,
      "address_3": null,
      "city": "Brooklyn",
      "state": "New York",
      "county_province": null,
      "postal_code": "11211-2707",
      "country": "United States",
      "longitude": "-73.9369567",
      "latitude": "40.7126813",
      "phone": "6462455417",
      "website_url": "http://www.interboro.nyc",
      "updated_at": "2023-02-21T01:41:59.300Z",
      "created_at": "2023-02-21T01:41:59.300Z",
      "Borough": "Brooklyn",
      "Neighborhood": "Greenpoint"
    },
    {
      "id": "island-to-island-brewery-brooklyn",
      "name": "Island To Island Brewery",
      "brewery_type": "brewpub",
      "street": "642 Rogers Ave",
      "address_2": null,
      "address_3": null,
      "city": "Brooklyn",
      "state": "New York",
      "county_province": null,
      "postal_code": "11226-1502",
      "country": "United States",
      "longitude": "-73.95325995",
      "latitude": "40.6558144",
      "phone": "3479741985",
      "website_url": "http://www.islandtoislandbrewery.com",
      "updated_at": "2023-02-21T01:41:59.300Z",
      "created_at": "2023-02-21T01:41:59.300Z",
      "Borough": "Brooklyn",
      "Neighborhood": "Flatbush"
    },
    {
      "id": "keg-and-lantern-brewing-co-brooklyn",
      "name": "Keg & Lantern Brewing Co",
      "brewery_type": "brewpub",
      "street": "97 Nassau Ave",
      "address_2": null,
      "address_3": null,
      "city": "Brooklyn",
      "state": "New York",
      "county_province": null,
      "postal_code": "11222-3081",
      "country": "United States",
      "longitude": "-73.95031963",
      "latitude": "40.7241037",
      "phone": "7183895050",
      "website_url": "http://www.kegandlanternbrooklyn.com",
      "updated_at": "2023-02-21T01:41:59.300Z",
      "created_at": "2023-02-21T01:41:59.300Z",
      "Borough": "Brooklyn",
      "Neighborhood": "Greenpoint"
    },
    {
      "id": "kelso-beer-company-brooklyn",
      "name": "KelSo Beer Company",
      "brewery_type": "contract",
      "street": "529 Waverly Ave",
      "address_2": null,
      "address_3": null,
      "city": "Brooklyn",
      "state": "New York",
      "county_province": null,
      "postal_code": "11238-2701",
      "country": "United States",
      "longitude": "-73.96564",
      "latitude": "40.68267586",
      "phone": null,
      "website_url": "http://www.kelsoofbrooklyn.com",
      "updated_at": "2023-02-21T01:41:59.300Z",
      "created_at": "2023-02-21T01:41:59.300Z",
      "Borough": "Brooklyn",
      "Neighborhood": "Central Brooklyn"
    },
    {
      "id": "kills-boro-brewing-company-staten-island",
      "name": "Kills Boro Brewing Company",
      "brewery_type": "micro",
      "street": "62 Van Duzer St",
      "address_2": null,
      "address_3": null,
      "city": "Staten Island",
      "state": "New York",
      "county_province": null,
      "postal_code": "10301-3226",
      "country": "United States",
      "longitude": "-74.07740788",
      "latitude": "40.636479",
      "phone": "3472778680",
      "website_url": "http://www.killsboro.com",
      "updated_at": "2023-02-21T01:41:59.300Z",
      "created_at": "2023-02-21T01:41:59.300Z",
      "Borough": "Staten Island",
      "Neighborhood": "Stapleton and St. George"
    },
    {
      "id": "kings-county-brewers-collective-brooklyn",
      "name": "Kings County Brewers Collective",
      "brewery_type": "micro",
      "street": "381 Troutman St",
      "address_2": null,
      "address_3": null,
      "city": "Brooklyn",
      "state": "New York",
      "county_province": null,
      "postal_code": "11237-2613",
      "country": "United States",
      "longitude": "-73.9236202",
      "latitude": "40.7060306",
      "phone": "7182882891",
      "website_url": "http://www.kcbcbeer.com",
      "updated_at": "2023-02-21T01:41:59.300Z",
      "created_at": "2023-02-21T01:41:59.300Z",
      "Borough": "Brooklyn",
      "Neighborhood": "Bushwick and Williamsburg"
    },
    {
      "id": "lic-beer-project-long-island-city",
      "name": "LIC Beer Project",
      "brewery_type": "micro",
      "street": "3928 23rd St",
      "address_2": null,
      "address_3": null,
      "city": "Long Island City",
      "state": "New York",
      "county_province": null,
      "postal_code": "11101-4817",
      "country": "United States",
      "longitude": "-73.942849",
      "latitude": "40.75063",
      "phone": "9178326840",
      "website_url": "http://licbeerproject.com",
      "updated_at": "2023-02-21T01:41:59.300Z",
      "created_at": "2023-02-21T01:41:59.300Z",
      "Borough": "Queens",
      "Neighborhood": "Northwest Queens"
    },
    {
      "id": "lineup-brewing-llc-brooklyn",
      "name": "Lineup Brewing LLC",
      "brewery_type": "micro",
      "street": "33 35th St Unit 6A",
      "address_2": null,
      "address_3": null,
      "city": "Brooklyn",
      "state": "New York",
      "county_province": null,
      "postal_code": "11232-2210",
      "country": "United States",
      "longitude": null,
      "latitude": null,
      "phone": "7204222053",
      "website_url": "http://www.lineupbrewing.com",
      "updated_at": "2023-02-21T01:41:59.300Z",
      "created_at": "2023-02-21T01:41:59.300Z",
      "Borough": "Brooklyn",
      "Neighborhood": "Sunset Park"
    },
    {
      "id": "mikkeller-brewing-nyc-flushing",
      "name": "Mikkeller Brewing NYC",
      "brewery_type": "brewpub",
      "street": "12001 Roosevelt Ave",
      "address_2": null,
      "address_3": null,
      "city": "Flushing",
      "state": "New York",
      "county_province": null,
      "postal_code": "11368-1653",
      "country": "United States",
      "longitude": null,
      "latitude": null,
      "phone": "9175720357",
      "website_url": "http://mikkellernyc.com",
      "updated_at": "2023-02-21T01:41:59.300Z",
      "created_at": "2023-02-21T01:41:59.300Z",
      "Borough": "Queens",
      "Neighborhood": "West Queens"
    },
    {
      "id": "other-half-brewing-company-brooklyn",
      "name": "Other Half Brewing Company",
      "brewery_type": "micro",
      "street": "195 Centre St",
      "address_2": null,
      "address_3": null,
      "city": "Brooklyn",
      "state": "New York",
      "county_province": null,
      "postal_code": "11231-3907",
      "country": "United States",
      "longitude": "-73.9991264",
      "latitude": "40.6737903",
      "phone": null,
      "website_url": null,
      "updated_at": "2023-02-21T01:41:59.300Z",
      "created_at": "2023-02-21T01:41:59.300Z",
      "Borough": "Brooklyn",
      "Neighborhood": "Northwest Brooklyn"
    },
    {
      "id": "queens-brewery-ridgewood",
      "name": "Queens Brewery",
      "brewery_type": "proprietor",
      "street": "1539 Covert St",
      "address_2": null,
      "address_3": null,
      "city": "Ridgewood",
      "state": "New York",
      "county_province": null,
      "postal_code": "11385-5356",
      "country": "United States",
      "longitude": "-73.90428508",
      "latitude": "40.6949116",
      "phone": "6462652049",
      "website_url": "http://www.queensbrewery.com",
      "updated_at": "2023-02-21T01:41:59.300Z",
      "created_at": "2023-02-21T01:41:59.300Z",
      "Borough": "Queens",
      "Neighborhood": "West Central Queens"
    },
    {
      "id": "radiant-pig-craft-beers-new-york",
      "name": "Radiant Pig Craft Beers",
      "brewery_type": "contract",
      "street": "122 W 27th St Fl 10",
      "address_2": null,
      "address_3": null,
      "city": "New York",
      "state": "New York",
      "county_province": null,
      "postal_code": "10001-6227",
      "country": "United States",
      "longitude": null,
      "latitude": null,
      "phone": null,
      "website_url": null,
      "updated_at": "2023-02-21T01:41:59.300Z",
      "created_at": "2023-02-21T01:41:59.300Z",
      "Borough": "Manhattan",
      "Neighborhood": "Chelsea and Clinton"
    },
    {
      "id": "randolph-beer-dumbo-brooklyn",
      "name": "Randolph Beer Dumbo",
      "brewery_type": "brewpub",
      "street": "77 Sands St",
      "address_2": null,
      "address_3": null,
      "city": "Brooklyn",
      "state": "New York",
      "county_province": null,
      "postal_code": "11201-1431",
      "country": "United States",
      "longitude": "-73.987503",
      "latitude": "40.70005509",
      "phone": "7182983331",
      "website_url": "http://www.randolphbeer.com",
      "updated_at": "2023-02-21T01:41:59.300Z",
      "created_at": "2023-02-21T01:41:59.300Z",
      "Borough": "Brooklyn",
      "Neighborhood": "Northwest Brooklyn"
    },
    {
      "id": "rockaway-brewing-company-long-island-city",
      "name": "Rockaway Brewing Company",
      "brewery_type": "micro",
      "street": "4601 5th St",
      "address_2": null,
      "address_3": null,
      "city": "Long Island City",
      "state": "New York",
      "county_province": null,
      "postal_code": "11101-5369",
      "country": "United States",
      "longitude": "-73.9573397",
      "latitude": "40.7404088",
      "phone": "7184826528",
      "website_url": "http://www.rockawaybrewco.com",
      "updated_at": "2023-02-21T01:41:59.300Z",
      "created_at": "2023-02-21T01:41:59.300Z",
      "Borough": "Queens",
      "Neighborhood": "Northwest Queens"
    },
    {
      "id": "ruckus-brewing-co-new-york",
      "name": "Ruckus Brewing Co",
      "brewery_type": "contract",
      "street": "261 W 35th St Ste 1002",
      "address_2": null,
      "address_3": null,
      "city": "New York",
      "state": "New York",
      "county_province": null,
      "postal_code": "10001-1902",
      "country": "United States",
      "longitude": null,
      "latitude": null,
      "phone": "6467105098",
      "website_url": "http://www.ruckusbrewing.com",
      "updated_at": "2023-02-21T01:41:59.300Z",
      "created_at": "2023-02-21T01:41:59.300Z",
      "Borough": "Manhattan",
      "Neighborhood": "Chelsea and Clinton"
    },
    {
      "id": "singlecut-beersmiths-astoria",
      "name": "Singlecut Beersmiths",
      "brewery_type": "micro",
      "street": "19-33 37th St",
      "address_2": null,
      "address_3": null,
      "city": "Astoria",
      "state": "New York",
      "county_province": null,
      "postal_code": "11105-1118",
      "country": "United States",
      "longitude": null,
      "latitude": null,
      "phone": "7186060788",
      "website_url": "http://www.singlecutbeer.com",
      "updated_at": "2023-02-21T01:41:59.300Z",
      "created_at": "2023-02-21T01:41:59.300Z",
      "Borough": "Queens",
      "Neighborhood": "Northwest Queens"
    },
    {
      "id": "sixpoint-brewery-brooklyn",
      "name": "Sixpoint Brewery",
      "brewery_type": "regional",
      "street": "40 Van Dyke St",
      "address_2": null,
      "address_3": null,
      "city": "Brooklyn",
      "state": "New York",
      "county_province": null,
      "postal_code": "11231-1529",
      "country": "United States",
      "longitude": "-74.01191761",
      "latitude": "40.67397255",
      "phone": "3472278676",
      "website_url": "http://www.sixpoint.com",
      "updated_at": "2023-02-21T01:41:59.300Z",
      "created_at": "2023-02-21T01:41:59.300Z",
      "Borough": "Brooklyn",
      "Neighborhood": "Northwest Brooklyn"
    },
    {
      "id": "staten-island-beer-company-staten-island",
      "name": "Staten Island Beer Company",
      "brewery_type": "micro",
      "street": "20 Kinsey Pl",
      "address_2": null,
      "address_3": null,
      "city": "Staten Island",
      "state": "New York",
      "county_province": null,
      "postal_code": "10303-1427",
      "country": "United States",
      "longitude": "-74.17033729",
      "latitude": "40.62874743",
      "phone": "7183908445",
      "website_url": "http://www.sibeerco.com",
      "updated_at": "2023-02-21T01:41:59.300Z",
      "created_at": "2023-02-21T01:41:59.300Z",
      "Borough": "Staten Island",
      "Neighborhood": "Port Richmond"
    },
    {
      "id": "strong-rope-brewery-brooklyn",
      "name": "Strong Rope Brewery",
      "brewery_type": "micro",
      "street": "574A President St",
      "address_2": null,
      "address_3": null,
      "city": "Brooklyn",
      "state": "New York",
      "county_province": null,
      "postal_code": "11215-1019",
      "country": "United States",
      "longitude": "-73.9840898",
      "latitude": "40.6769023",
      "phone": "5857033010",
      "website_url": "http://www.strongropebrewery.com",
      "updated_at": "2023-02-21T01:41:59.300Z",
      "created_at": "2023-02-21T01:41:59.300Z",
      "Borough": "Brooklyn",
      "Neighborhood": "Northwest Brooklyn"
    },
    {
      "id": "the-bronx-brewery-bronx",
      "name": "The Bronx Brewery",
      "brewery_type": "micro",
      "street": "856 E 136th St",
      "address_2": null,
      "address_3": null,
      "city": "Bronx",
      "state": "New York",
      "county_province": null,
      "postal_code": "10454-3509",
      "country": "United States",
      "longitude": "-73.91064054",
      "latitude": "40.801861",
      "phone": "7184021000",
      "website_url": "http://www.thebronxbrewery.com",
      "updated_at": "2023-02-21T01:41:59.300Z",
      "created_at": "2023-02-21T01:41:59.300Z",
      "Borough": "Bronx",
      "Neighborhood": "Hunts Point and Mott Haven"
    },
    {
      "id": "the-owls-brew-new-york",
      "name": "The Owls Brew",
      "brewery_type": "large",
      "street": "135 W 29th St Rm 602",
      "address_2": null,
      "address_3": null,
      "city": "New York",
      "state": "New York",
      "county_province": null,
      "postal_code": "10001-5175",
      "country": "United States",
      "longitude": null,
      "latitude": null,
      "phone": "2125640218",
      "website_url": "http://www.theowlsbrew.com",
      "updated_at": "2023-02-21T01:41:59.300Z",
      "created_at": "2023-02-21T01:41:59.300Z",
      "Borough": "Manhattan",
      "Neighborhood": "Chelsea and Clinton"
    },
    {
      "id": "third-rail-beer-new-york",
      "name": "Third Rail Beer",
      "brewery_type": "contract",
      "street": "928 Broadway Ste 902",
      "address_2": null,
      "address_3": null,
      "city": "New York",
      "state": "New York",
      "county_province": null,
      "postal_code": "10010-8139",
      "country": "United States",
      "longitude": "-73.9893474",
      "latitude": "40.7400479",
      "phone": null,
      "website_url": "http://www.thirdrailbeer.com",
      "updated_at": "2023-02-21T01:41:59.300Z",
      "created_at": "2023-02-21T01:41:59.300Z",
      "Borough": "Manhattan",
      "Neighborhood": "Gramercy Park and Murray Hill"
    },
    {
      "id": "threes-brewing-brooklyn",
      "name": "Threes Brewing",
      "brewery_type": "micro",
      "street": "333 Douglass St",
      "address_2": null,
      "address_3": null,
      "city": "Brooklyn",
      "state": "New York",
      "county_province": null,
      "postal_code": "11217-3115",
      "country": "United States",
      "longitude": "-73.9821529",
      "latitude": "40.6798144",
      "phone": "7185222110",
      "website_url": "http://www.threesbrewing.com",
      "updated_at": "2023-02-21T01:41:59.300Z",
      "created_at": "2023-02-21T01:41:59.300Z",
      "Borough": "Brooklyn",
      "Neighborhood": "Northwest Brooklyn"
    },
    {
      "id": "toast-ale-new-york",
      "name": "Toast Ale",
      "brewery_type": "contract",
      "street": "601 W 26th St Ste 325-291",
      "address_2": null,
      "address_3": null,
      "city": "New York",
      "state": "New York",
      "county_province": null,
      "postal_code": "10001-1101",
      "country": "United States",
      "longitude": null,
      "latitude": null,
      "phone": "9162023851",
      "website_url": "http://www.toastale.com/us",
      "updated_at": "2023-02-21T01:41:59.300Z",
      "created_at": "2023-02-21T01:41:59.300Z",
      "Borough": "Manhattan",
      "Neighborhood": "Chelsea and Clinton"
    },
    {
      "id": "transmitter-brewing-long-island-city",
      "name": "Transmitter Brewing",
      "brewery_type": "micro",
      "street": "5302 11th St",
      "address_2": null,
      "address_3": null,
      "city": "Long Island City",
      "state": "New York",
      "county_province": null,
      "postal_code": "11101-5917",
      "country": "United States",
      "longitude": "-73.9511062",
      "latitude": "40.7431826",
      "phone": "6463788529",
      "website_url": "http://www.transmitterbrew.com",
      "updated_at": "2023-02-21T01:41:59.300Z",
      "created_at": "2023-02-21T01:41:59.300Z",
      "Borough": "Queens",
      "Neighborhood": "Northwest Queens"
    },
    {
      "id": "war-flag-brewing-co-brooklyn",
      "name": "War Flag Brewing Co",
      "brewery_type": "proprietor",
      "street": "649 Morgan Ave Ste B16-5",
      "address_2": null,
      "address_3": null,
      "city": "Brooklyn",
      "state": "New York",
      "county_province": null,
      "postal_code": "11222-3940",
      "country": "United States",
      "longitude": null,
      "latitude": null,
      "phone": "6466968096",
      "website_url": "http://www.warflag.nyc",
      "updated_at": "2023-02-21T01:41:59.300Z",
      "created_at": "2023-02-21T01:41:59.300Z",
      "Borough": "Brooklyn",
      "Neighborhood": "Greenpoint"
    },
    {
      "id": "wartega-brooklyn",
      "name": "Wartega",
      "brewery_type": "micro",
      "street": "33 35th St Unit 6A",
      "address_2": null,
      "address_3": null,
      "city": "Brooklyn",
      "state": "New York",
      "county_province": null,
      "postal_code": "11232-2210",
      "country": "United States",
      "longitude": null,
      "latitude": null,
      "phone": "9173971171",
      "website_url": "http://www.wartega.com",
      "updated_at": "2023-02-21T01:41:59.300Z",
      "created_at": "2023-02-21T01:41:59.300Z",
      "Borough": "Brooklyn",
      "Neighborhood": "Sunset Park"
    }
  ]
}